~Version Information Block
 VERS.                2.00:     CWLS LOG ASCII STANDARD - VERSION 2.000000
 WRAP.                  NO:     One Line Per Depth Step
#
~Well Information Block
#MNEM.UNIT                     Data                         Information
#----------   ------------------------------------------   ----------------
 STRT.FT                                       92.0000:     START DEPTH
 STOP.FT                                      270.0000:     STOP DEPTH
 STEP.FT                                        0.5000:     STEP
 NULL.                                       -999.2500:     NULL VALUE
 COMP.                                                :     COMPANY
 WELL.                                            log2:     WELL
 FLD .                                                :     FIELD
 LOC .                                                :     LOCATION
 CNTY.                                                :     COUNTY
 STAT.                                                :     STATE
 CTRY.                                                :     COUNTRY
 SRVC.                                                :     SERVICE COMPANY
 DATE.                                      05/13/2016:     DATE
 API .                                                :     API NUMBER
 UWI .                                                :     UWI NUMBER
 TVD .                                              NO:     TVD flag
 WSTA.                                             LOC:     Well status
#
~Curve Information Block
#MNEM.UNIT       API CODE      Curve Description
#----------    -------------   -------------------
 DEPT.FT                   :   Depth in Feet
 SALINITY.                     :   
 SP  .MV       01 010 01 01:   Spontaneous Potential
 GR  .GAPI     35 310 01 01:   Gamma Ray
 CALI.IN       70 280 01 01:   Caliper
 SW-DIEL.                     :   
 MICRO-R.OHMM                 :   
 DEEP-R.OHMM                 :   
 H2OPOR.%                    :   
 XPOR.%                    :   
#
~Parameter Information Block
#MNEM.UNIT            Value               Description
#----------    --------------------    -------------------
 RUN .                         ONE:    Run Number
 PDAT.                         UNK:    Permanent Datum
 EPD .FT                -9999.5000:    Elevation Of Perm. Datum
 WSTA.                         LOC:    
 E   .FT                -9999.5000:    E (Stretch Coefficient Of The Cable)
 TD  .FT                  170.0000:    Total Depth
#
~Other Information Block
<DescLogPlotStart>   NEURALOG PLOT DEFINITION
PLOTDEFVERSION: 3
LASFILE: C:\nds\projects\Alireza\las\slb_log02.las
DEPTHSCALE: 239.999996
RESOLUTION: 96
DEPTHLABELFREQ: 100.000000
HEAVYGRIDFREQ: 100.000000
MEDIUMGRIDFREQ: 50.000000
LIGHTGRIDFREQ: 10.000000
#
#   TRACK 1
#
STARTTRACK: 
 LEFTX: 0.500000 inch
 RIGHTX: 2.000000 inch
 SCALETYPE: Linear
 NUMCHARTDIVISIONS: 5
CURVE: SALINITY 0.000000   50.000000  (0,0,0)        Solid             2     N 
ENDTRACK: 
#
#   TRACK 2
#
STARTTRACK: 
 LEFTX: 3.500000 inch
 RIGHTX: 4.750000 inch
 SCALETYPE: Linear
 NUMCHARTDIVISIONS: 5
CURVE: SP    0.000000   100.000000 (255,0,0)      Solid             2     N    
CURVE: GR    0.000000   100.000000 (0,255,0)      Dot               2     N    
CURVE: CALI  6.000000   16.000000  (0,0,0)        Short_Dash        2     N    
ENDTRACK: 
#
#   TRACK 3
#
STARTTRACK: 
 LEFTX: 4.750000 inch
 RIGHTX: 5.572917 inch
 SCALETYPE: Linear
 NUMCHARTDIVISIONS: 5
CURVE: SW-DIEL 0.000000   1.000000   (0,0,0)        Solid             2     N  
ENDTRACK: 
#
#   TRACK 4
#
STARTTRACK: 
 LEFTX: 5.572917 inch
 RIGHTX: 8.072917 inch
 SCALETYPE: Log
 NUMCYCLES: 3
 STARTCYCLE: 1
CURVE: MICRO-R 1.000000   1000.000000 (0,0,255)      Solid             2     N 
CURVE: DEEP-R 1.000000   1000.000000 (255,0,0)      Dot               2     N  
ENDTRACK: 
#
#   TRACK 5
#
STARTTRACK: 
 LEFTX: 8.072917 inch
 RIGHTX: 10.572917 inch
 SCALETYPE: Linear
 NUMCHARTDIVISIONS: 5
CURVE: H2OPOR 50.000000  0.000000   (0,0,255)      Solid             2     N   
CURVE: XPOR  50.000000  0.000000   (0,0,0)        Dot               2     N    
ENDTRACK: 
<DescLogPlotEnd>
<DepthTrack type='Reference' track='1' Label='0' color='0' hor='0' />
<Reference font='144,0,-900,0,500,0,16777216,Arial' />
<DepthTrack type='Reference' track='1' Label='0' color='0' hor='0' />
<Reference font='144,0,-900,0,500,0,16777216,Arial' />
~A DEPTH     SALINITY             SP               GR               CALI             SW-DIEL             MICRO-R             DEEP-R             H2OPOR             XPOR            
      92.000 12.34939759      68.84615385      12.69230769      8.03846154       0.99398114       3.19051657       2.19633631       20.55984556      20.55984556     
      92.500 12.34939759      70.38461538      13.46153846      8.11538462       0.99547034       3.19051657       2.79219629       20.75289575      20.75289575     
      93.000 12.34939759      70.38461538      12.69230769      8.11538462       0.99695954       3.54971144       5.31711037       18.98326898      19.12269412     
      93.500 12.34939759      69.61538462      10.38461538      8.11538462       0.99844875       5.26458596       10.41280097      15.12226512      15.00429000     
      94.000 12.34939759      66.53846154      8.07692308       7.96153846       0.99993795       9.29968993       18.54982293      11.26126126      10.88588589     
      94.500 12.34939759      63.75949020      6.80934518       7.95658664       1.00096196       13.63659800      18.21860994      8.20463320       7.62548263      
      95.000 12.34939759      60.72281209      4.99427587       7.89975902       1.00221133       23.94579296      21.76896784      7.33590734       7.23938224      
      95.500 12.34939759      59.10156684      5.00791866       7.89742921       1.00321825       34.32960442      14.59125556      7.81853282       7.52895753      
      96.000 12.34939759      58.03751607      5.62485314       7.81464023       1.00338553       32.45089946      10.73712554      8.78378378       8.39768340      
      96.500 12.34939759      58.08792170      5.73296784       7.88371387       0.97771380       33.73039317      9.52279595       8.01158301       9.16988417      
      97.000 12.34939759      58.20318436      6.06481396       7.89174457       0.92227317       36.03076008      9.02814354       7.81771505       9.36862154      
      97.500 12.35128368      58.80867376      8.29970706       7.79912135       0.99009085       31.53320883      8.79053776       8.87561848       9.35846908      
      98.000 12.35268891      58.70859918      9.65364848       7.80487629       0.99409045       27.68350884      8.55918537       9.36667725       9.07708283      
      98.500 12.35338983      55.93519903      9.25031550       7.80615499       0.99239146       26.92770457      7.79636013       9.36365381       9.06897974      
      99.000 12.35466712      51.12207853      8.87972311       7.80592580       1.00696560       36.54741034      6.82302298       8.77599736       8.98140844      
      99.500 12.32981700      43.35504350      8.55676768       7.79660903       0.97149276       44.72796615      5.81405003       8.30749579       9.73434659      
     100.000 10.25792829      40.02778306      7.25968746       7.74549225       0.92205487       42.40461528      5.02079166       10.32818533      10.71428571     
     100.500 8.30136213       36.48391895      7.94407514       7.80672682       0.99151718       36.13391827      4.39397056       12.64478764      12.06563707     
     101.000 7.68015707       33.10856711      6.88940128       7.80766755       0.99310533       35.18293341      3.84540498       13.80308880      13.41698842     
     101.500 8.34704513       30.33066973      5.67395202       7.80848831       0.99349664       32.47753142      3.54971144       14.38223938      14.96138996     
     102.000 8.98752008       28.01969827      7.32798164       7.81003830       0.99365186       26.94647310      3.10654746       15.15444015      15.92664093     
     102.500 9.63324681       26.83762081      8.18148077       7.81607052       0.99372375       21.76039445      2.86766858       15.71804881      15.92664093     
     103.000 9.51981307       24.85172930      8.08787433       7.72359793       0.99367089       20.08682270      2.71871031       15.55798021      15.15444015     
     103.500 8.72018272       24.94658445      8.00356012       7.79107938       0.99367089       24.22935534      2.57748954       13.98440525      14.18918919     
     104.000 8.83086186       24.95713658      8.91142777       7.82045218       0.99367089       24.20629009      2.37929272       13.98681754      13.99613900     
     104.500 8.92291633       24.85863924      8.20584197       7.84536657       0.99367089       24.24382136      2.25570267       15.14561167      14.57528958     
     105.000 9.01320538       24.24101526      7.41398883       7.86918637       0.99367089       22.89432930      2.11081404       14.86486486      14.76833977     
     105.500 9.10364295       24.23277306      8.84213927       7.88513865       0.99367089       24.31874993      1.97430927       14.76833977      14.38223938     
     106.000 9.19216178       24.22990248      8.30668039       7.88483711       0.99367089       27.74519820      1.92189071       14.38223938      13.99613900     
     106.500 9.28110327       24.22957189      7.25314615       7.88473597       0.99367089       26.96269021      1.87106414       14.38223938      13.80308880     
     107.000 9.36413196       24.22984414      7.29639251       7.88467529       0.99369587       24.18172397      1.87137993       15.15444015      14.57528958     
     107.500 8.35595706       24.22984414      7.88674246       7.88473018       0.99359983       23.58233870      1.87154715       15.73359073      15.73359073     
     108.000 6.45206910       24.22815922      9.04582396       7.88473512       0.99348627       26.94647310      1.87154715       15.92664093      15.15444015     
     108.500 8.34217446       24.22635434      9.06048267       7.88470206       0.99325967       26.94647310      1.92213454       14.38223938      14.96138996     
     109.000 10.44452535      24.22211539      8.02879501       7.88441500       0.99188615       24.87441615      2.02744839       13.80308880      15.34749035     
     109.500 9.71908536       24.21477797      8.68030397       7.88330825       0.95385099       24.21976273      2.19633631       13.80308880      15.92664093     
     110.000 8.77349490       24.77549724      8.76424383       7.82110819       0.98864923       29.17420942      2.31667368       13.61003861      15.15997080     
     110.500 8.41927294       25.82079235      8.58765190       7.81016619       0.99288954       32.52246045      2.37929272       13.41698842      14.19380608     
     111.000 8.05693060       25.78397579      9.95377943       7.80875450       0.99328107       32.41768323      2.50965428       13.41698842      13.59905322     
     111.500 7.68936472       26.28810564      7.30999297       7.80809793       0.99348434       35.09880261      2.64715836       13.61003861      13.42731967     
     112.000 7.64535638       27.66547357      5.90485196       7.80777425       0.99363845       36.20133509      2.71871031       14.38223938      13.60058469     
     112.500 8.64894929       30.21878085      8.19019928       7.80797484       0.99367089       36.13391827      2.71966549       14.38223938      13.80308880     
     113.000 9.89190645       28.56928767      7.22415196       7.80840193       0.99367089       39.14389995      2.71966309       13.22393822      13.61003861     
     113.500 7.59058435       26.59768065      7.30391297       7.80963883       0.99367089       44.72796615      2.71723600       12.64478764      13.03088803     
     114.000 6.96435441       24.17919200      8.78916183       7.81263392       0.99367089       45.93695058      3.06271502       13.61003861      13.22393822     
     114.500 6.94089020       22.85304332      8.91494313       7.82413406       0.99367089       47.17861352      3.52438088       16.73745174      15.34145753     
     115.000 6.93088285       22.70913390      4.77646728       7.63740440       0.99370133       51.10862634      4.05757436       19.78764479      18.67760618     
     115.500 6.92911207       22.06413385      3.46740341       7.64890454       0.99366333       58.39951850      4.66779709       21.33204633      20.75289575     
     116.000 7.02401176       21.93408109      3.38270263       7.65189964       0.99358144       61.59923087      5.37175047       20.75289575      20.94594595     
