~Version Information Block
 VERS.                2.00:     CWLS LOG ASCII STANDARD - VERSION 2.000000
 WRAP.                  NO:     One Line Per Depth Step
#
~Well Information Block
#MNEM.UNIT                     Data                         Information
#----------   ------------------------------------------   ----------------
 STRT.FT                                       92.0000:     START DEPTH
 STOP.FT                                      270.0000:     STOP DEPTH
 STEP.FT                                        0.5000:     STEP
 NULL.                                       -999.2500:     NULL VALUE
 COMP.                                                :     COMPANY
 WELL.                                            log4:     WELL
 FLD .                                                :     FIELD
 LOC .                                                :     LOCATION
 CNTY.                                                :     COUNTY
 STAT.                                                :     STATE
 CTRY.                                                :     COUNTRY
 SRVC.                                                :     SERVICE COMPANY
 DATE.                                      05/13/2016:     DATE
 API .                                                :     API NUMBER
 UWI .                                                :     UWI NUMBER
 TVD .                                              NO:     TVD flag
 WSTA.                                             LOC:     Well status
#
~Curve Information Block
#MNEM.UNIT       API CODE      Curve Description
#----------    -------------   -------------------
 DEPT.FT                   :   Depth in Feet
 M   .                     :   Magnetic Mark Detector Depth
 GR  .GAPI     35 310 01 01:   Gamma Ray
 CALI.IN       70 280 01 01:   Caliper
 CO  .mrec                 :   Delta-T Min Coefficient Used In The Drift Zone
 C1  .mrec                 :   Caliper 1 - 3
 C2  .mrec                 :   Caliper 2 - 4
 C3  .mrec                 :   Double R1 Radius (Hdt)
 F-COND-0.OHMM                 :   
 F-COND-1.OHMM                 :   
 F-COND-2.OHMM                 :   
 F-COND-3.OHMM                 :   
 0-FREQ.                     :   
 1-FREQ.                     :   
 2-FREQ.                     :   
 3-FREQ.                     :   
 E0  .mrec                 :   
 E1  .mrec                 :   
 E2  .mrec                 :   
 E3  .mrec                 :   
#
~Parameter Information Block
#MNEM.UNIT            Value               Description
#----------    --------------------    -------------------
 RUN .                         ONE:    Run Number
 PDAT.                         UNK:    Permanent Datum
 EPD .FT                -9999.5000:    Elevation Of Perm. Datum
 WSTA.                         LOC:    
 E   .FT                -9999.5000:    E (Stretch Coefficient Of The Cable)
 TD  .FT                  170.0000:    Total Depth
#
~Other Information Block
<DescLogPlotStart>   NEURALOG PLOT DEFINITION
PLOTDEFVERSION: 3
LASFILE: C:\nds\projects\Alireza\las\slb_log04.las
DEPTHSCALE: 239.999996
RESOLUTION: 96
DEPTHLABELFREQ: 100.000000
HEAVYGRIDFREQ: 100.000000
MEDIUMGRIDFREQ: 50.000000
LIGHTGRIDFREQ: 10.000000
#
#   TRACK 1
#
STARTTRACK: 
 LEFTX: 0.500000 inch
 RIGHTX: 3.000000 inch
 SCALETYPE: Linear
 NUMCHARTDIVISIONS: 5
CURVE: M     1.000000   3.500000   (0,0,255)      Solid             2     N    
CURVE: GR    0.000000   100.000000 (0,255,0)      Solid             2     N    
CURVE: CALI  0.000000   16.000000  (0,0,0)        Solid             2     N    
ENDTRACK: 
#
#   TRACK 2
#
STARTTRACK: 
 LEFTX: 3.500000 inch
 RIGHTX: 4.750000 inch
 SCALETYPE: Linear
 NUMCHARTDIVISIONS: 1
CURVE: CO    0.000000   1.100000   (255,131,65)   Solid             2     N    
CURVE: C1    0.000000   1.100000   (255,0,255)    Solid             2     N    
CURVE: C2    0.000000   1.100000   (0,255,0)      Solid             2     N    
CURVE: C3    0.000000   1.100000   (0,0,0)        Solid             2     N    
ENDTRACK: 
#
#   TRACK 3
#
STARTTRACK: 
 LEFTX: 4.750000 inch
 RIGHTX: 8.541667 inch
 SCALETYPE: Log
 NUMCYCLES: 2
 STARTCYCLE: 2
CURVE: F-COND-0 20.000000  2000.000000 (255,131,65)   Solid             2     N
CURVE: F-COND-1 20.000000  2000.000000 (255,0,255)    Solid             2     N
CURVE: F-COND-2 20.000000  2000.000000 (0,255,0)      Solid             2     N
CURVE: F-COND-3 20.000000  2000.000000 (0,0,0)        Solid             2     N
ENDTRACK: 
#
#   TRACK 4
#
STARTTRACK: 
 LEFTX: 8.541667 inch
 RIGHTX: 12.333333 inch
 SCALETYPE: Log
 NUMCYCLES: 0
 STARTCYCLE: 8
CURVE: 0-FREQ 80.000000  8.000000   (255,131,65)   Solid             2     N   
CURVE: 1-FREQ 80.000000  8.000000   (255,0,255)    Solid             2     N   
CURVE: 2-FREQ 80.000000  8.000000   (0,255,0)      Solid             2     N   
CURVE: 3-FREQ 80.000000  8.000000   (0,0,0)        Solid             2     N   
ENDTRACK: 
#
#   TRACK 5
#
STARTTRACK: 
 LEFTX: 12.333333 inch
 RIGHTX: 13.583333 inch
 SCALETYPE: Linear
 NUMCHARTDIVISIONS: 1
CURVE: E0    0.700000   1.400000   (255,131,65)   Solid             2     N    
CURVE: E1    0.700000   1.400000   (255,0,255)    Solid             2     N    
ENDTRACK: 
#
#   TRACK 6
#
STARTTRACK: 
 LEFTX: 12.333333 inch
 RIGHTX: 13.583333 inch
 SCALETYPE: Linear
 NUMCHARTDIVISIONS: 1
CURVE: E2    0.800000   1.500000   (0,255,0)      Solid             2     N    
CURVE: E3    0.800000   1.500000   (0,0,0)        Solid             2     N    
ENDTRACK: 
<DescLogPlotEnd>
<DepthTrack type='Reference' track='1' Label='0' color='0' hor='0' />
<Reference font='144,0,-900,0,500,0,16777216,Arial' />
~A DEPTH     M                GR               CALI             CO               C1               C2               C3               F-COND-0             F-COND-1             F-COND-2             F-COND-3             0-FREQ             1-FREQ             2-FREQ             3-FREQ             E0               E1               E2               E3              
# ...
     128.000 2.21100449       6.86477085       3.15377854       0.82667775       0.87680333       0.94874197       0.99460374       90.74420035      116.04874570     159.26813580     183.04946218     35.15176449      20.79338294      17.47333089      15.59283746      1.09786512       0.98791021       0.99629351       1.00238821      
     128.500 2.28469011       7.37538532       3.13995633       0.83945369       0.87176761       0.98855867       0.99440672       87.34249248      108.23591770     152.36952986     171.82878916     32.42796214      20.20982321      16.82256383      15.79136447      1.02949286       0.97632463       0.98979980       1.00229678      
     129.000 2.20994464       8.84539768       3.12600473       0.92462744       0.91274408       1.01248347       0.99420970       76.90394851      108.27955922     135.97140278     152.36952986     31.07246455      18.25553349      15.33201179      14.72990267      1.11597040       0.96994934       0.97038236       1.00220543      
     129.500 2.07232188       9.93949647       3.11202449       0.93557772       0.93560291       1.01895451       0.99401269       76.90034765      99.10257540      137.70258199     158.26381999     27.55357143      18.26476782      14.91744285      13.82698048      0.98045740       0.97733753       0.96795194       1.00211377      
     130.000 2.05646536       10.40856092      3.09804401       0.88606430       0.89073284       0.98008087       0.99381567       76.84600848      99.10257540      142.12757539     176.23206931     31.46807719      18.25743952      16.09390434      14.49878952      1.02218430       0.96254415       1.00212893       1.00201942      
     130.500 2.25526387       9.90784806       3.08405531       0.82611792       0.87168881       0.98009732       0.99361865       85.31875144      113.90020380     156.27414753     186.55642703     31.07246455      19.69249533      17.03674764      15.01662950      1.02862716       0.94245987       1.01794126       1.00178408      
     131.000 2.21277203       8.86723441       3.07005754       0.83548847       0.87209084       0.95457509       0.99342163       90.70336563      116.81900750     156.27414753     188.93165153     30.29609754      19.70486680      16.92931701      15.01745705      0.97929087       0.95259061       0.99735781       1.00155995      
     131.500 2.09487424       9.03055663       3.05594643       0.82721459       0.85564674       0.91495600       0.99322461       94.81000544      122.88292323     156.27414753     209.05509906     33.31159912      20.08238375      17.14486000      15.01722808      0.97267170       0.95448072       1.00012412       1.00133600      
     132.000 2.12551907       7.04148530       3.05036008       0.83191141       0.85752413       0.91172386       0.99302759       106.91828248     134.26198774     170.74526816     217.14222388     32.10479051      20.40250033      17.92110202      15.01145366      1.01159959       0.94742400       1.02198603       1.00111232      
     132.500 1.99785495       5.32150651       3.04443419       0.89976387       0.89671079       0.92486096       0.99283057       101.64217545     124.44746075     158.26381999     188.63920041     30.29609754      20.59701440      17.36314726      15.08864107      0.96677168       0.95302030       1.01184494       1.00088884      
     133.000 1.90009525       7.11590101       3.02946857       0.92246461       0.89832177       0.89784691       0.99263355       102.93627714     119.71155725     152.36952986     189.16703275     29.51458122      19.85949072      16.92931701      14.63701859      0.95889271       0.95742679       1.00036744       1.00066536      
     133.500 2.04216604       7.59945020       3.01462201       0.94542785       0.89884421       0.89783476       0.99243653       96.62642900      118.21074788     150.45395966     188.79590828     29.32514393      19.31589194      16.82256383      14.54472022      0.95945342       0.94703340       0.99246677       1.00044188      
     134.000 2.01147308       6.81033883       2.99978546       0.88334469       0.86748399       0.88981272       0.99223951       91.85819509      127.67322366     155.28871126     193.90319206     31.48718583      19.31984964      16.92931701      15.10737078      0.97004327       0.94320119       0.99530462       1.00021840      
     134.500 2.05245804       6.02578866       2.98493164       0.86806662       0.89098590       0.93619477       0.99204249       95.41165392      127.60422469     164.38612589     196.24031731     30.68182551      20.08891283      17.25365842      15.29971685      0.98570126       0.94584300       0.98965595       0.99999492      
     135.000 2.05658445       4.20168595       2.96989994       0.86072382       0.90466419       0.92438157       0.99184547       95.41165392      126.03191787     164.38612589     186.55642703     31.26964523      20.09163197      17.02077250      15.10737078      0.98128460       0.95418233       0.99746158       0.99977144      
     135.500 1.94974820       3.42184397       2.95431710       0.96118012       0.91388645       0.94256245       0.99164845       99.10257540      126.03191787     164.38612589     170.74526816     31.66776836      20.09814121      17.01908142      15.10737078      0.99437499       0.96377019       0.98887339       0.99954797      
     136.000 1.89688594       3.28128430       2.93625531       1.00881343       1.01802433       1.07159005       0.99145143       102.93627714     123.66271777     160.27882483     162.31948458     29.16776645      19.19653227      17.12858965      15.10737078      0.96626129       0.95000818       0.98118717       0.99932449      
     136.500 1.94523646       2.44770625       3.09043191       0.92046117       0.90144157       0.95351128       0.99125441       99.10257540      119.81260840     152.36952986     181.92584182     29.91521888      19.33444657      16.50025696      15.10737078      0.95231465       0.94519795       0.96988176       0.99910101      
     137.000 1.88743161       2.45084138       3.19717128       0.97336730       0.95435340       0.97164858       0.99105739       97.85667052      121.33805487     158.26381999     179.73131255     29.53912858      19.33444657      16.62130309      14.72990267      0.96367398       0.94798639       0.97407811       0.99887753      
     137.500 1.99149191       3.36316585       3.37018065       0.94328235       0.95529047       0.97231127       0.99086037       102.93627714     122.88292323     162.31948458     189.14264960     33.52298898      19.33444657      16.82997649      14.54472022      1.06248103       0.94737589       0.99197265       0.99865405      
     138.000 1.99124453       5.46289011       3.51189600       0.94287625       0.95575229       0.98332250       0.99066335       87.32525968      118.30633964     164.38612589     175.44771014     31.82555715      18.79183142      15.99159801      13.82698048      1.11028808       0.97896408       1.01540089       0.99843057      
     138.500 1.96168360       5.24202760       3.42125835       0.99090725       0.97881131       1.04889845       0.99046633       74.08176389      102.94630919     124.44746075     156.18170681     28.79398331      17.55655647      15.39680631      12.97940614      1.05530740       0.96939380       0.99265036       0.99820710      
     139.000 1.97890273       4.70618041       3.14740066       0.89628890       0.86863211       0.89218128       0.99026931       77.92724745      95.37433066      127.63654819     172.99959102     29.71375237      16.79453660      14.91744285      13.22807292      1.03913003       0.93148831       0.98624310       0.99798362      
     139.500 2.02185675       4.68334521       3.14879927       0.90675409       0.85369041       0.89852123       0.99007229       83.01601148      99.09259122      135.97140278     172.82247311     25.53007048      16.57627373      13.91472419      12.41721077      1.04091908       0.91983367       0.98583660       0.99776014      
