~Version Information Block
 VERS.                2.00:     CWLS LOG ASCII STANDARD - VERSION 2.000000
 WRAP.                  NO:     One Line Per Depth Step
#
~Well Information Block
#MNEM.UNIT                     Data                         Information
#----------   ------------------------------------------   ----------------
 STRT.FT                                       92.0000:     START DEPTH
 STOP.FT                                      270.0000:     STOP DEPTH
 STEP.FT                                        0.5000:     STEP
 NULL.                                       -999.2500:     NULL VALUE
 COMP.                                                :     COMPANY
 WELL.                                            log4:     WELL
 FLD .                                                :     FIELD
 LOC .                                                :     LOCATION
 CNTY.                                                :     COUNTY
 STAT.                                                :     STATE
 CTRY.                                                :     COUNTRY
 SRVC.                                                :     SERVICE COMPANY
 DATE.                                      05/13/2016:     DATE
 API .                                                :     API NUMBER
 UWI .                                                :     UWI NUMBER
 TVD .                                              NO:     TVD flag
 WSTA.                                             LOC:     Well status
#
~Curve Information Block
#MNEM.UNIT       API CODE      Curve Description
#----------    -------------   -------------------
 DEPT.FT                   :   Depth in Feet
 M   .                     :   Magnetic Mark Detector Depth
 GR  .GAPI     35 310 01 01:   Gamma Ray
 CALI.IN       70 280 01 01:   Caliper
 CO  .mrec                 :   Delta-T Min Coefficient Used In The Drift Zone
 C1  .mrec                 :   Caliper 1 - 3
 C2  .mrec                 :   Caliper 2 - 4
 C3  .mrec                 :   Double R1 Radius (Hdt)
 F-COND-0.OHMM                 :   
 F-COND-1.OHMM                 :   
 F-COND-2.OHMM                 :   
 F-COND-3.OHMM                 :   
 0-FREQ.                     :   
 1-FREQ.                     :   
 2-FREQ.                     :   
 3-FREQ.                     :   
 E0  .mrec                 :   
 E1  .mrec                 :   
 E2  .mrec                 :   
 E3  .mrec                 :   
#
~Parameter Information Block
#MNEM.UNIT            Value               Description
#----------    --------------------    -------------------
 RUN .                         ONE:    Run Number
 PDAT.                         UNK:    Permanent Datum
 EPD .FT                -9999.5000:    Elevation Of Perm. Datum
 WSTA.                         LOC:    
 E   .FT                -9999.5000:    E (Stretch Coefficient Of The Cable)
 TD  .FT                  170.0000:    Total Depth
#
~Other Information Block
<DescLogPlotStart>   NEURALOG PLOT DEFINITION
PLOTDEFVERSION: 3
LASFILE: C:\nds\projects\Alireza\las\slb_log04.las
DEPTHSCALE: 239.999996
RESOLUTION: 96
DEPTHLABELFREQ: 100.000000
HEAVYGRIDFREQ: 100.000000
MEDIUMGRIDFREQ: 50.000000
LIGHTGRIDFREQ: 10.000000
#
#   TRACK 1
#
STARTTRACK: 
 LEFTX: 0.500000 inch
 RIGHTX: 3.000000 inch
 SCALETYPE: Linear
 NUMCHARTDIVISIONS: 5
CURVE: M     1.000000   3.500000   (0,0,255)      Solid             2     N    
CURVE: GR    0.000000   100.000000 (0,255,0)      Solid             2     N    
CURVE: CALI  0.000000   16.000000  (0,0,0)        Solid             2     N    
ENDTRACK: 
#
#   TRACK 2
#
STARTTRACK: 
 LEFTX: 3.500000 inch
 RIGHTX: 4.750000 inch
 SCALETYPE: Linear
 NUMCHARTDIVISIONS: 1
CURVE: CO    0.000000   1.100000   (255,131,65)   Solid             2     N    
CURVE: C1    0.000000   1.100000   (255,0,255)    Solid             2     N    
CURVE: C2    0.000000   1.100000   (0,255,0)      Solid             2     N    
CURVE: C3    0.000000   1.100000   (0,0,0)        Solid             2     N    
ENDTRACK: 
#
#   TRACK 3
#
STARTTRACK: 
 LEFTX: 4.750000 inch
 RIGHTX: 8.541667 inch
 SCALETYPE: Log
 NUMCYCLES: 2
 STARTCYCLE: 2
CURVE: F-COND-0 20.000000  2000.000000 (255,131,65)   Solid             2     N
CURVE: F-COND-1 20.000000  2000.000000 (255,0,255)    Solid             2     N
CURVE: F-COND-2 20.000000  2000.000000 (0,255,0)      Solid             2     N
CURVE: F-COND-3 20.000000  2000.000000 (0,0,0)        Solid             2     N
ENDTRACK: 
#
#   TRACK 4
#
STARTTRACK: 
 LEFTX: 8.541667 inch
 RIGHTX: 12.333333 inch
 SCALETYPE: Log
 NUMCYCLES: 0
 STARTCYCLE: 8
CURVE: 0-FREQ 80.000000  8.000000   (255,131,65)   Solid             2     N   
CURVE: 1-FREQ 80.000000  8.000000   (255,0,255)    Solid             2     N   
CURVE: 2-FREQ 80.000000  8.000000   (0,255,0)      Solid             2     N   
CURVE: 3-FREQ 80.000000  8.000000   (0,0,0)        Solid             2     N   
ENDTRACK: 
#
#   TRACK 5
#
STARTTRACK: 
 LEFTX: 12.333333 inch
 RIGHTX: 13.583333 inch
 SCALETYPE: Linear
 NUMCHARTDIVISIONS: 1
CURVE: E0    0.700000   1.400000   (255,131,65)   Solid             2     N    
CURVE: E1    0.700000   1.400000   (255,0,255)    Solid             2     N    
ENDTRACK: 
#
#   TRACK 6
#
STARTTRACK: 
 LEFTX: 12.333333 inch
 RIGHTX: 13.583333 inch
 SCALETYPE: Linear
 NUMCHARTDIVISIONS: 1
CURVE: E2    0.800000   1.500000   (0,255,0)      Solid             2     N    
CURVE: E3    0.800000   1.500000   (0,0,0)        Solid             2     N    
ENDTRACK: 
<DescLogPlotEnd>
<DepthTrack type='Reference' track='1' Label='0' color='0' hor='0' />
<Reference font='144,0,-900,0,500,0,16777216,Arial' />
~A DEPTH     M                GR               CALI             CO               C1               C2               C3               F-COND-0             F-COND-1             F-COND-2             F-COND-3             0-FREQ             1-FREQ             2-FREQ             3-FREQ             E0               E1               E2               E3              
# ...
     164.000 1.89654117       11.93382554      3.16255548       1.08563061       0.94401885       1.02463965       0.98041834       56.08312352      63.74082411      94.21215084      102.83538159     14.60926775      14.03924167      12.97940614      11.36481877      0.70307794       0.90408438       0.99602436       0.98640223      
     164.500 1.81077552       12.40295897      3.16236225       1.08728274       0.94775502       1.01071730       0.98022132       48.18347604      65.12502148      85.14337767      102.94968863     13.14465911      13.44743450      12.41721077      11.43693801      0.70239766       0.87913531       0.96848497       0.98615505      
     165.000 1.47759340       12.21753840      3.15640085       1.08690497       1.04074029       1.06724924       0.98002430       48.79694497      67.03864361      84.07296603      90.64420046      12.53559441      12.81623071      12.22238391      11.11596395      0.70137751       0.87069047       0.96230730       0.98590786      
     165.500 1.45693582       11.86538993      3.28635776       1.08676796       1.09298179       1.03386014       0.97975082       74.14538950      84.88914775      91.56626865      104.26215354     12.95293110      12.81623071      11.22194172      10.14172815      0.69731480       0.91394976       0.97228105       0.98569476      
     166.000 1.45674842       13.13995737      3.28132335       1.08658537       1.08463923       1.08007459       0.97963739       95.06023305      105.00496049     137.20266313     101.64217545     18.39544936      14.70734990      11.36481877      9.88833006       0.88349346       0.97662938       0.96900231       0.98545682      
     166.500 1.51118438       14.05223922      3.28061902       1.08658537       1.07777323       1.08089086       0.97980917       108.16718198     118.30633964     133.83597058     147.31470923     25.41229570      15.98775605      12.03061390      10.33602910      1.05966151       1.00536056       0.96743943       0.98508611      
     167.000 1.49085477       13.99067519      3.28059472       1.08658537       1.07761458       1.08265641       1.00337384       113.94057524     130.90735911     146.40008079     189.03127284     25.03795956      16.51186317      11.73002069      9.82597605       1.01548751       1.04154916       0.97255899       0.97346928      
     167.500 1.52689777       14.93391988      3.28057554       1.08658537       1.07762376       1.08465056       1.07521089       119.81260840     139.33532036     177.35040863     217.14222388     26.76335387      17.47333089      13.14465911      10.22121883      0.99386738       0.96228386       0.96821874       0.94504370      
     168.000 1.56822152       16.35094013      3.28082622       1.08658537       1.07765564       1.08501568       1.02870785       126.03191787     141.30371786     191.33711724     243.32953760     29.53912858      17.92110202      13.65314945      10.72055107      1.01562009       0.93854820       0.96452130       0.97367669      
     168.500 1.52508666       14.84518810      3.28133336       1.08658537       1.07786697       1.08504679       1.07505948       119.81260840     139.20444632     177.35040863     217.14222388     26.76335387      17.47333089      13.14465911      10.21810510      0.99389765       0.96316137       0.96837303       0.96514136      
     169.000 1.52508666       14.84518810      3.28133336       1.08658537       1.07786697       1.08504679       1.07505948       119.81260840     139.20444632     177.35040863     217.14222388     26.76335387      17.47333089      13.14465911      10.21810510      0.99389765       0.96316137       0.96837303       0.96514136      
     169.500 1.52508666       14.84518810      3.28133336       1.08658537       1.07786697       1.08504679       1.07505948       119.81260840     139.20444632     177.35040863     217.14222388     26.76335387      17.47333089      13.14465911      10.21810510      0.99389765       0.96316137       0.96837303       0.96514136      
     170.000 1.52508666       14.84518810      3.28133336       1.08658537       1.07786697       1.08504679       1.07505948       119.81260840     139.20444632     177.35040863     217.14222388     26.76335387      17.47333089      13.14465911      10.21810510      0.99389765       0.96316137       0.96837303       0.96514136      
     170.500 -999.25000000    -999.25000000    -999.25000000    -999.25000000    -999.25000000    -999.25000000    -999.25000000    -999.25000000    -999.25000000    -999.25000000    -999.25000000    -999.25000000    -999.25000000    -999.25000000    -999.25000000    -999.25000000    -999.25000000    -999.25000000    -999.25000000   
     171.000 -999.25000000    -999.25000000    -999.25000000    -999.25000000    -999.25000000    -999.25000000    -999.25000000    -999.25000000    -999.25000000    -999.25000000    -999.25000000    -999.25000000    -999.25000000    -999.25000000    -999.25000000    -999.25000000    -999.25000000    -999.25000000    -999.25000000   
     171.500 -999.25000000    -999.25000000    -999.25000000    -999.25000000    -999.25000000    -999.25000000    -999.25000000    -999.25000000    -999.25000000    -999.25000000    -999.25000000    -999.25000000    -999.25000000    -999.25000000    -999.25000000    -999.25000000    -999.25000000    -999.25000000    -999.25000000   
     172.000 -999.25000000    -999.25000000    -999.25000000    -999.25000000    -999.25000000    -999.25000000    -999.25000000    -999.25000000    -999.25000000    -999.25000000    -999.25000000    -999.25000000    -999.25000000    -999.25000000    -999.25000000    -999.25000000    -999.25000000    -999.25000000    -999.25000000   
     172.500 -999.25000000    -999.25000000    -999.25000000    -999.25000000    -999.25000000    -999.25000000    -999.25000000    -999.25000000    -999.25000000    -999.25000000    -999.25000000    -999.25000000    -999.25000000    -999.25000000    -999.25000000    -999.25000000    -999.25000000    -999.25000000    -999.25000000   
     173.000 -999.25000000    -999.25000000    -999.25000000    -999.25000000    -999.25000000    -999.25000000    -999.25000000    -999.25000000    -999.25000000    -999.25000000    -999.25000000    -999.25000000    -999.25000000    -999.25000000    -999.25000000    -999.25000000    -999.25000000    -999.25000000    -999.25000000   
     173.500 -999.25000000    -999.25000000    -999.25000000    -999.25000000    -999.25000000    -999.25000000    -999.25000000    -999.25000000    -999.25000000    -999.25000000    -999.25000000    -999.25000000    -999.25000000    -999.25000000    -999.25000000    -999.25000000    -999.25000000    -999.25000000    -999.25000000   
     174.000 -999.25000000    -999.25000000    -999.25000000    -999.25000000    -999.25000000    -999.25000000    -999.25000000    -999.25000000    -999.25000000    -999.25000000    -999.25000000    -999.25000000    -999.25000000    -999.25000000    -999.25000000    -999.25000000    -999.25000000    -999.25000000    -999.25000000   
     174.500 -999.25000000    -999.25000000    -999.25000000    -999.25000000    -999.25000000    -999.25000000    -999.25000000    -999.25000000    -999.25000000    -999.25000000    -999.25000000    -999.25000000    -999.25000000    -999.25000000    -999.25000000    -999.25000000    -999.25000000    -999.25000000    -999.25000000   
     175.000 -999.25000000    -999.25000000    -999.25000000    -999.25000000    -999.25000000    -999.25000000    -999.25000000    -999.25000000    -999.25000000    -999.25000000    -999.25000000    -999.25000000    -999.25000000    -999.25000000    -999.25000000    -999.25000000    -999.25000000    -999.25000000    -999.25000000   
     175.500 -999.25000000    -999.25000000    -999.25000000    -999.25000000    -999.25000000    -999.25000000    -999.25000000    -999.25000000    -999.25000000    -999.25000000    -999.25000000    -999.25000000    -999.25000000    -999.25000000    -999.25000000    -999.25000000    -999.25000000    -999.25000000    -999.25000000   
