~Version Information Block
 VERS.                2.00:     CWLS LOG ASCII STANDARD - VERSION 2.000000
 WRAP.                  NO:     One Line Per Depth Step
#
~Well Information Block
#MNEM.UNIT                     Data                         Information
#----------   ------------------------------------------   ----------------
 STRT.FT                                       92.0000:     START DEPTH
 STOP.FT                                      270.0000:     STOP DEPTH
 STEP.FT                                        0.5000:     STEP
 NULL.                                       -999.2500:     NULL VALUE
 COMP.                                                :     COMPANY
 WELL.                                            log4:     WELL
 FLD .                                                :     FIELD
 LOC .                                                :     LOCATION
 CNTY.                                                :     COUNTY
 STAT.                                                :     STATE
 CTRY.                                                :     COUNTRY
 SRVC.                                                :     SERVICE COMPANY
 DATE.                                      05/13/2016:     DATE
 API .                                                :     API NUMBER
 UWI .                                                :     UWI NUMBER
 TVD .                                              NO:     TVD flag
 WSTA.                                             LOC:     Well status
#
~Curve Information Block
#MNEM.UNIT       API CODE      Curve Description
#----------    -------------   -------------------
 DEPT.FT                   :   Depth in Feet
 M   .                     :   Magnetic Mark Detector Depth
 GR  .GAPI     35 310 01 01:   Gamma Ray
 CALI.IN       70 280 01 01:   Caliper
 CO  .mrec                 :   Delta-T Min Coefficient Used In The Drift Zone
 C1  .mrec                 :   Caliper 1 - 3
 C2  .mrec                 :   Caliper 2 - 4
 C3  .mrec                 :   Double R1 Radius (Hdt)
 F-COND-0.OHMM                 :   
 F-COND-1.OHMM                 :   
 F-COND-2.OHMM                 :   
 F-COND-3.OHMM                 :   
 0-FREQ.                     :   
 1-FREQ.                     :   
 2-FREQ.                     :   
 3-FREQ.                     :   
 E0  .mrec                 :   
 E1  .mrec                 :   
 E2  .mrec                 :   
 E3  .mrec                 :   
#
~Parameter Information Block
#MNEM.UNIT            Value               Description
#----------    --------------------    -------------------
 RUN .                         ONE:    Run Number
 PDAT.                         UNK:    Permanent Datum
 EPD .FT                -9999.5000:    Elevation Of Perm. Datum
 WSTA.                         LOC:    
 E   .FT                -9999.5000:    E (Stretch Coefficient Of The Cable)
 TD  .FT                  170.0000:    Total Depth
#
~Other Information Block
<DescLogPlotStart>   NEURALOG PLOT DEFINITION
PLOTDEFVERSION: 3
LASFILE: C:\nds\projects\Alireza\las\slb_log04.las
DEPTHSCALE: 239.999996
RESOLUTION: 96
DEPTHLABELFREQ: 100.000000
HEAVYGRIDFREQ: 100.000000
MEDIUMGRIDFREQ: 50.000000
LIGHTGRIDFREQ: 10.000000
#
#   TRACK 1
#
STARTTRACK: 
 LEFTX: 0.500000 inch
 RIGHTX: 3.000000 inch
 SCALETYPE: Linear
 NUMCHARTDIVISIONS: 5
CURVE: M     1.000000   3.500000   (0,0,255)      Solid             2     N    
CURVE: GR    0.000000   100.000000 (0,255,0)      Solid             2     N    
CURVE: CALI  0.000000   16.000000  (0,0,0)        Solid             2     N    
ENDTRACK: 
#
#   TRACK 2
#
STARTTRACK: 
 LEFTX: 3.500000 inch
 RIGHTX: 4.750000 inch
 SCALETYPE: Linear
 NUMCHARTDIVISIONS: 1
CURVE: CO    0.000000   1.100000   (255,131,65)   Solid             2     N    
CURVE: C1    0.000000   1.100000   (255,0,255)    Solid             2     N    
CURVE: C2    0.000000   1.100000   (0,255,0)      Solid             2     N    
CURVE: C3    0.000000   1.100000   (0,0,0)        Solid             2     N    
ENDTRACK: 
#
#   TRACK 3
#
STARTTRACK: 
 LEFTX: 4.750000 inch
 RIGHTX: 8.541667 inch
 SCALETYPE: Log
 NUMCYCLES: 2
 STARTCYCLE: 2
CURVE: F-COND-0 20.000000  2000.000000 (255,131,65)   Solid             2     N
CURVE: F-COND-1 20.000000  2000.000000 (255,0,255)    Solid             2     N
CURVE: F-COND-2 20.000000  2000.000000 (0,255,0)      Solid             2     N
CURVE: F-COND-3 20.000000  2000.000000 (0,0,0)        Solid             2     N
ENDTRACK: 
#
#   TRACK 4
#
STARTTRACK: 
 LEFTX: 8.541667 inch
 RIGHTX: 12.333333 inch
 SCALETYPE: Log
 NUMCYCLES: 0
 STARTCYCLE: 8
CURVE: 0-FREQ 80.000000  8.000000   (255,131,65)   Solid             2     N   
CURVE: 1-FREQ 80.000000  8.000000   (255,0,255)    Solid             2     N   
CURVE: 2-FREQ 80.000000  8.000000   (0,255,0)      Solid             2     N   
CURVE: 3-FREQ 80.000000  8.000000   (0,0,0)        Solid             2     N   
ENDTRACK: 
#
#   TRACK 5
#
STARTTRACK: 
 LEFTX: 12.333333 inch
 RIGHTX: 13.583333 inch
 SCALETYPE: Linear
 NUMCHARTDIVISIONS: 1
CURVE: E0    0.700000   1.400000   (255,131,65)   Solid             2     N    
CURVE: E1    0.700000   1.400000   (255,0,255)    Solid             2     N    
ENDTRACK: 
#
#   TRACK 6
#
STARTTRACK: 
 LEFTX: 12.333333 inch
 RIGHTX: 13.583333 inch
 SCALETYPE: Linear
 NUMCHARTDIVISIONS: 1
CURVE: E2    0.800000   1.500000   (0,255,0)      Solid             2     N    
CURVE: E3    0.800000   1.500000   (0,0,0)        Solid             2     N    
ENDTRACK: 
<DescLogPlotEnd>
<DepthTrack type='Reference' track='1' Label='0' color='0' hor='0' />
<Reference font='144,0,-900,0,500,0,16777216,Arial' />
~A DEPTH     M                GR               CALI             CO               C1               C2               C3               F-COND-0             F-COND-1             F-COND-2             F-COND-3             0-FREQ             1-FREQ             2-FREQ             3-FREQ             E0               E1               E2               E3              
# ...
     116.000 2.82399000       7.60693532       3.16708370       0.46250406       0.72846446       0.91678757       0.99933221       54.68184789      109.65816764     168.59868054     209.05509906     41.96999216      25.03293422      18.61526147      16.82256383      1.28435177       1.11818138       1.00899224       1.00458703      
     116.500 2.84486740       6.81511219       3.17068384       0.46084790       0.72129973       0.92275155       0.99913519       53.31558410      104.24685524     162.31948458     211.71677522     38.53765786      23.66287226      18.39354638      16.50632632      1.21355523       1.11133732       1.02089177       1.00449541      
     117.000 2.82211520       6.99980375       3.25527857       0.45898467       0.68701651       0.91056444       0.99893817       46.50648454      94.21215084      144.85053565     193.77320919     36.85967702      23.07949316      17.59730836      15.20323963      1.16852647       1.10143889       1.01430715       1.00440379      
     117.500 2.85776834       7.52297430       3.28324941       0.42509447       0.66307090       0.87982055       0.99874115       40.87610971      87.32525968      143.02949329     193.77320919     36.85967702      22.79083918      16.92931701      14.83186001      1.20019213       1.11145452       1.01342696       1.00431218      
     118.000 2.78722500       7.54160615       3.36711969       0.44942382       0.66305288       0.86026382       0.99854413       44.06633368      91.85819509      144.85053565     186.55642703     37.32897207      22.50431567      16.50632632      13.90605829      1.20874438       1.13896960       1.01272852       1.00422056      
     118.500 2.75794108       7.54174233       3.38977107       0.48928368       0.73353921       0.91703009       0.99834712       48.79694497      95.41165392      144.85053565     175.12078203     37.56585551      22.36240756      17.03674764      15.11206328      1.22039627       1.09717067       0.99308165       1.00412894      
     119.000 2.82096908       7.51280047       3.31323105       0.49732191       0.74815847       0.93479569       0.99815010       48.79694497      90.38753615      139.45580247     170.74526816     37.50570999      21.94202978      17.14486000      15.30661442      1.22340681       1.07105418       1.00238229       1.00403732      
     119.500 2.66270320       6.95364597       3.15827556       0.49609069       0.75125557       0.92601640       0.99795308       45.80576130      82.76853048      130.90735911     162.21683727     35.26843193      20.10886720      16.40224044      15.01210645      1.23266744       1.05448835       1.02400212       1.00394571      
     120.000 2.42573280       5.99187732       3.16169395       0.67248582       0.81434944       0.95364684       0.99775606       51.32992799      76.83085682      115.35037392     142.14765909     28.90138838      18.26444461      15.39680631      13.56705518      1.24847553       1.01580652       1.00283802       1.00385409      
     120.500 2.55066817       3.93646416       3.15854353       0.63775371       0.78102288       0.92460029       0.99755904       48.18347604      77.05792624      115.35037392     154.30948898     29.57270928      18.26444461      15.49451187      13.73979006      1.05500829       0.99677420       1.00236580       1.00376247      
     121.000 2.58455211       4.60226651       3.28954418       0.58613742       0.72594879       0.90239847       0.99736202       46.97957856      74.22794530      121.33805487     145.95427126     29.54538181      17.86450907      15.49451187      13.82698048      1.04107480       0.96985132       0.98540535       1.00367085      
     121.500 2.24635147       4.54901973       3.28364116       0.75271568       0.82442424       0.95128833       0.99716500       51.98345735      72.98357319      109.60919927     134.26198774     27.30906117      17.04348464      14.72990267      12.90607732      1.04510167       0.97005321       0.98591016       1.00357924      
     122.000 2.21677117       6.00725045       3.28156486       0.78104652       0.84400007       0.93715618       0.99696798       45.80576130      73.89021167      104.97584158     139.45580247     25.62768443      16.45420107      14.40736280      12.62306983      1.01343898       0.96363393       0.98985081       1.00348762      
     122.500 2.06298849       6.12560802       3.28082622       0.78977133       0.84701734       0.96167259       0.99677096       34.24100312      57.43027446      82.90883484      105.57411954     21.52955443      15.69178701      14.00302471      12.48189697      0.99985419       0.98267801       0.99653446       1.00339600      
     123.000 2.20663753       6.12356287       3.28057554       0.69976717       0.79801567       0.90425624       0.99657394       35.51819893      65.51430197      89.28894311      116.52379247     25.10691104      17.05333583      13.65902520      12.65510670      0.93055317       0.98794470       0.99637459       1.00330439      
     123.500 2.55487480       6.12381135       3.28057554       0.60239461       0.72903190       0.88571914       0.99637692       41.89678989      77.92724745      122.41022691     143.70968572     31.21529615      19.18683509      15.50862873      13.06177129      1.12027674       1.04638605       1.00056661       1.00321277      
     124.000 2.59289900       6.13331462       3.28057554       0.55802838       0.75907057       0.97400585       0.99617990       49.37407560      91.27895407      146.89433542     174.01650232     37.21109110      21.58725100      17.21692800      15.29971685      1.21668079       1.08864919       1.01953680       1.00312115      
     124.500 2.64839479       6.17403418       3.28082622       0.59813184       0.79823428       1.00518008       0.99598288       63.14277144      107.25698878     162.81757360     184.21106354     41.30494754      24.12601488      18.75096127      16.29881090      1.26756568       1.10333461       1.01941533       1.00302953      
     125.000 2.61540273       5.38200211       3.28156486       0.59045727       0.79669948       0.97812883       0.99578586       62.63254216      116.81900750     168.59868054     201.26916665     42.09629102      23.52320971      18.74529529      15.99241911      1.33164730       1.11857320       1.04361521       1.00293792      
     125.500 2.56877271       5.60348241       3.28364116       0.65664995       0.83461919       0.99874998       0.99558884       72.23077977      116.81900750     166.47907954     196.24031731     40.78566703      22.50431567      17.92110202      14.72990267      1.29409745       1.10734603       1.06817284       1.00284630      
     126.000 2.42400829       6.80985300       3.28980529       0.67542678       0.84377737       0.94834259       0.99539182       75.50106411      113.90020380     156.27414753     193.77320919     38.52851716      22.08127024      17.80809482      15.01210645      1.21543089       1.06378955       1.01737796       1.00275468      
     126.500 2.44955246       7.52019708       3.15972865       0.67019445       0.80393010       0.89695478       0.99519480       82.97850986      129.26160857     177.35040863     225.54219248     40.52848006      22.64712431      17.92110202      15.89157384      1.17574352       1.02459486       0.98995699       1.00266306      
     127.000 2.39594994       7.60098887       3.16484651       0.64149137       0.79930222       0.89827373       0.99499778       89.57432586      129.36113553     177.35040863     225.54219248     39.01905977      22.93546605      18.14927235      16.29881090      1.12198110       1.00102466       0.98995252       1.00257145      
     127.500 2.31812146       6.80917561       3.16585438       0.73848069       0.80863291       0.90419376       0.99480076       90.74965926      124.47119053     168.59868054     201.65148484     37.56585551      21.39379299      17.58421374      15.29971685      1.15216370       0.98710375       0.98911269       1.00247983      
