~Version Information Block
 VERS.                2.00:     CWLS LOG ASCII STANDARD - VERSION 2.000000
 WRAP.                  NO:     One Line Per Depth Step
#
~Well Information Block
#MNEM.UNIT                     Data                         Information
#----------   ------------------------------------------   ----------------
 STRT.FT                                       92.0000:     START DEPTH
 STOP.FT                                      270.0000:     STOP DEPTH
 STEP.FT                                        0.5000:     STEP
 NULL.                                       -999.2500:     NULL VALUE
 COMP.                                                :     COMPANY
 WELL.                                            log4:     WELL
 FLD .                                                :     FIELD
 LOC .                                                :     LOCATION
 CNTY.                                                :     COUNTY
 STAT.                                                :     STATE
 CTRY.                                                :     COUNTRY
 SRVC.                                                :     SERVICE COMPANY
 DATE.                                      05/13/2016:     DATE
 API .                                                :     API NUMBER
 UWI .                                                :     UWI NUMBER
 TVD .                                              NO:     TVD flag
 WSTA.                                             LOC:     Well status
#
~Curve Information Block
#MNEM.UNIT       API CODE      Curve Description
#----------    -------------   -------------------
 DEPT.FT                   :   Depth in Feet
 M   .                     :   Magnetic Mark Detector Depth
 GR  .GAPI     35 310 01 01:   Gamma Ray
 CALI.IN       70 280 01 01:   Caliper
 CO  .mrec                 :   Delta-T Min Coefficient Used In The Drift Zone
 C1  .mrec                 :   Caliper 1 - 3
 C2  .mrec                 :   Caliper 2 - 4
 C3  .mrec                 :   Double R1 Radius (Hdt)
 F-COND-0.OHMM                 :   
 F-COND-1.OHMM                 :   
 F-COND-2.OHMM                 :   
 F-COND-3.OHMM                 :   
 0-FREQ.                     :   
 1-FREQ.                     :   
 2-FREQ.                     :   
 3-FREQ.                     :   
 E0  .mrec                 :   
 E1  .mrec                 :   
 E2  .mrec                 :   
 E3  .mrec                 :   
#
~Parameter Information Block
#MNEM.UNIT            Value               Description
#----------    --------------------    -------------------
 RUN .                         ONE:    Run Number
 PDAT.                         UNK:    Permanent Datum
 EPD .FT                -9999.5000:    Elevation Of Perm. Datum
 WSTA.                         LOC:    
 E   .FT                -9999.5000:    E (Stretch Coefficient Of The Cable)
 TD  .FT                  170.0000:    Total Depth
#
~Other Information Block
<DescLogPlotStart>   NEURALOG PLOT DEFINITION
PLOTDEFVERSION: 3
LASFILE: C:\nds\projects\Alireza\las\slb_log04.las
DEPTHSCALE: 239.999996
RESOLUTION: 96
DEPTHLABELFREQ: 100.000000
HEAVYGRIDFREQ: 100.000000
MEDIUMGRIDFREQ: 50.000000
LIGHTGRIDFREQ: 10.000000
#
#   TRACK 1
#
STARTTRACK: 
 LEFTX: 0.500000 inch
 RIGHTX: 3.000000 inch
 SCALETYPE: Linear
 NUMCHARTDIVISIONS: 5
CURVE: M     1.000000   3.500000   (0,0,255)      Solid             2     N    
CURVE: GR    0.000000   100.000000 (0,255,0)      Solid             2     N    
CURVE: CALI  0.000000   16.000000  (0,0,0)        Solid             2     N    
ENDTRACK: 
#
#   TRACK 2
#
STARTTRACK: 
 LEFTX: 3.500000 inch
 RIGHTX: 4.750000 inch
 SCALETYPE: Linear
 NUMCHARTDIVISIONS: 1
CURVE: CO    0.000000   1.100000   (255,131,65)   Solid             2     N    
CURVE: C1    0.000000   1.100000   (255,0,255)    Solid             2     N    
CURVE: C2    0.000000   1.100000   (0,255,0)      Solid             2     N    
CURVE: C3    0.000000   1.100000   (0,0,0)        Solid             2     N    
ENDTRACK: 
#
#   TRACK 3
#
STARTTRACK: 
 LEFTX: 4.750000 inch
 RIGHTX: 8.541667 inch
 SCALETYPE: Log
 NUMCYCLES: 2
 STARTCYCLE: 2
CURVE: F-COND-0 20.000000  2000.000000 (255,131,65)   Solid             2     N
CURVE: F-COND-1 20.000000  2000.000000 (255,0,255)    Solid             2     N
CURVE: F-COND-2 20.000000  2000.000000 (0,255,0)      Solid             2     N
CURVE: F-COND-3 20.000000  2000.000000 (0,0,0)        Solid             2     N
ENDTRACK: 
#
#   TRACK 4
#
STARTTRACK: 
 LEFTX: 8.541667 inch
 RIGHTX: 12.333333 inch
 SCALETYPE: Log
 NUMCYCLES: 0
 STARTCYCLE: 8
CURVE: 0-FREQ 80.000000  8.000000   (255,131,65)   Solid             2     N   
CURVE: 1-FREQ 80.000000  8.000000   (255,0,255)    Solid             2     N   
CURVE: 2-FREQ 80.000000  8.000000   (0,255,0)      Solid             2     N   
CURVE: 3-FREQ 80.000000  8.000000   (0,0,0)        Solid             2     N   
ENDTRACK: 
#
#   TRACK 5
#
STARTTRACK: 
 LEFTX: 12.333333 inch
 RIGHTX: 13.583333 inch
 SCALETYPE: Linear
 NUMCHARTDIVISIONS: 1
CURVE: E0    0.700000   1.400000   (255,131,65)   Solid             2     N    
CURVE: E1    0.700000   1.400000   (255,0,255)    Solid             2     N    
ENDTRACK: 
#
#   TRACK 6
#
STARTTRACK: 
 LEFTX: 12.333333 inch
 RIGHTX: 13.583333 inch
 SCALETYPE: Linear
 NUMCHARTDIVISIONS: 1
CURVE: E2    0.800000   1.500000   (0,255,0)      Solid             2     N    
CURVE: E3    0.800000   1.500000   (0,0,0)        Solid             2     N    
ENDTRACK: 
<DescLogPlotEnd>
<DepthTrack type='Reference' track='1' Label='0' color='0' hor='0' />
<Reference font='144,0,-900,0,500,0,16777216,Arial' />
~A DEPTH     M                GR               CALI             CO               C1               C2               C3               F-COND-0             F-COND-1             F-COND-2             F-COND-3             0-FREQ             1-FREQ             2-FREQ             3-FREQ             E0               E1               E2               E3              
      92.000 1.85431655       16.18705036      3.97122302       1.11341463       1.08658537       1.03292683       1.01504065       519.83457354     519.83457354     636.46898937     731.50417446     40.52848006      28.61945871      21.66617740      16.09390434      0.77682927       0.91341463       1.01341463       1.00772358      
      92.500 1.90827338       16.18705036      3.97122302       1.11341463       1.07764228       1.03292683       1.01504065       464.55029791     487.96944975     628.46738282     695.40656586     45.99444382      29.35286023      21.66617740      16.40224044      0.85081301       0.91910569       1.00203252       1.00737678      
      93.000 1.99820144       14.74820144      4.08633094       1.09552846       1.04186992       1.02398374       1.01504065       378.70102377     398.69339457     575.20308210     612.76469057     43.17504950      27.03560800      21.66617740      17.25365842      0.82804878       0.89634146       0.97357724       1.00556275      
      93.500 1.81834532       12.58992806      3.97122302       1.05081301       0.96138211       0.99715447       1.01504065       252.69258353     212.18087815     419.77503142     441.43406820     48.99794875      24.11171138      17.64456879      15.51290057      1.05000000       0.91910569       0.97926829       1.00374873      
      94.000 1.69261157       10.57124961      3.89158252       1.04967496       1.00451315       1.02228987       1.01504065       259.14961669     212.40139995     247.10290035     449.00680113     37.13120802      24.35748494      17.74397725      12.35564715      1.00137019       0.95589598       0.98026270       1.00238958      
      94.500 1.64165131       9.15428950       3.74044758       1.10447233       1.07939129       1.03281980       1.01504065       89.56305455      96.62642900      137.60630697     188.93165153     22.45534799      15.69178701      12.54796492      10.01422764      0.96521567       1.00447552       0.99073713       1.00057419      
      95.000 1.64085692       8.22392694       3.61924402       1.10343226       1.11166219       1.03380859       1.01504065       80.94179902      93.02772776      114.25157727     154.30948898     22.53219332      15.29971685      11.37458328      9.28218942       1.05580141       1.07333330       0.99876828       0.99876016      
      95.500 1.64372327       8.27493328       3.49544637       1.10235217       1.10821783       1.07774313       1.01504065       88.75733423      94.21215084      114.94136956     158.26381999     23.20028919      15.49758970      11.80380778      9.96007644       0.98365745       0.99801550       0.97409822       0.99694784      
      96.000 1.52193587       8.44592124       3.47955352       1.10126223       1.11159819       1.00150182       1.01492330       95.40794649      102.93627714     116.81900750     164.42266608     21.80366734      15.06239320      12.37799852      10.80399793      0.90578871       0.91482701       0.96283867       0.99508080      
      96.500 1.47951909       9.43142204       3.39933799       1.10023289       1.11999773       0.91398584       1.01485184       95.46074893      97.85667052      115.35037392     116.93871097     21.52955443      14.82142383      11.73002069      9.46002284       1.04326996       1.08141802       0.98248980       0.99320651      
      97.000 1.54101503       11.39095616      3.39706803       1.09922368       1.11974301       1.02669527       1.01498506       90.64558711      102.93627714     134.26198774     150.83409231     21.25888763      15.02052719      10.94155375      9.58046724       0.97614347       1.01274957       0.95496698       0.99157279      
      97.500 1.69012134       11.86256104      3.39600512       1.09816736       1.11705708       1.11601159       1.02074099       90.80788820      108.27955922     160.27882483     206.13272349     23.22747894      15.00610663      11.50951491      9.76401524       0.95973505       0.93033283       0.94481665       0.97013363      
      98.000 1.76375283       11.86771491      3.39568345       1.09684857       1.11338487       1.11874480       1.09559696       83.01601148      93.02772776      135.97140278     188.93165153     23.67248408      14.87102344      12.10695817      10.22846167      0.96890040       0.90306499       0.96573181       1.00635777      
      98.500 1.91516229       11.86286496      3.39568345       1.09457505       1.06595660       1.07595577       1.05361105       81.97234483      97.85667052      150.45395966     206.42688516     24.27911455      14.36110588      13.14465911      11.10821411      0.90185177       0.85714587       0.97190962       1.00784964      
      99.000 1.78860180       11.73831608      3.39568345       1.04750249       0.93486369       0.99001723       1.00463669       56.79717027      74.45761425      116.81900750     151.60039237     19.13974471      13.78266660      12.03061390      10.29680268      0.79725437       0.84270012       0.96808889       1.00779310      
      99.500 1.71746506       10.40418114      3.39568345       1.10551061       0.99897458       0.98560994       1.00553076       54.68184789      67.80313518      91.85819509      95.41165392      15.89157384      13.39900036      11.80445745      10.98698146      0.80534609       0.94176024       0.96821587       1.00766425      
     100.000 1.71123613       10.41806447      3.39568345       1.10553408       1.03053073       1.05677198       1.00550278       55.37805368      66.95072286      93.02772776      101.64217545     15.79136447      13.31201607      12.18378691      11.63709720      0.77457101       0.91093554       0.96142564       1.00751901      
     100.500 1.79509941       10.41162972      3.39568345       1.10377447       1.00912862       1.11344569       1.00541132       54.68184789      66.95072286      89.56305455      101.64217545     17.61841166      14.10860965      13.22807292      12.34894961      0.78934650       0.90175648       0.96812438       1.00742722      
     101.000 1.88526565       9.91568221       3.39568345       1.06844166       0.96353410       1.01532883       1.00524280       62.84673828      76.94755608      106.91828248     135.97140278     20.08329118      15.32999136      14.09188557      13.17200832      0.78530731       0.90397063       0.96879388       1.00733555      
     101.500 2.03812511       8.77329925       3.39568345       0.90935168       0.85051201       0.95133199       1.00504578       64.45724719      81.97234483      115.35037392     132.57406324     22.89301626      16.50632632      14.72990267      13.39649190      0.90145426       0.95567283       0.99022967       1.00724393      
     102.000 2.08360055       9.60821866       3.39568345       0.93723324       0.91096518       0.91522427       1.00484876       66.01124484      93.44057240      126.03191787     146.25464432     25.69542856      17.14486000      14.72990267      13.22807292      0.98622556       0.95792688       0.98513271       1.00715232      
     102.500 2.19911184       9.72569769       3.39568345       0.89608487       0.90752532       1.00630438       1.00465174       77.28177340      106.24407529     150.45395966     186.55642703     27.21414494      18.03482635      15.39680631      13.73979006      0.95977069       0.94600347       0.99457359       1.00706070      
     103.000 2.12355363       9.75091817       3.39568345       0.82232300       0.88929555       0.97112358       1.00445472       82.03763345      108.27955922     144.85053565     168.59868054     23.33215614      18.38034773      15.79136447      13.82698048      0.84485364       0.95960252       1.01334585       1.00696908      
     103.500 2.02237458       10.28260826      3.39568345       0.89473963       0.89518554       0.96088875       1.00425770       73.96350882      96.87123373      132.71001350     172.91918600     23.41544140      18.38034773      15.58060690      14.09188557      0.82368812       0.94648693       1.01192925       1.00687746      
