~Version Information Block
 VERS.                2.00:     CWLS LOG ASCII STANDARD - VERSION 2.000000
 WRAP.                  NO:     One Line Per Depth Step
#
~Well Information Block
#MNEM.UNIT                     Data                         Information
#----------   ------------------------------------------   ----------------
 STRT.FT                                       92.0000:     START DEPTH
 STOP.FT                                      270.0000:     STOP DEPTH
 STEP.FT                                        0.5000:     STEP
 NULL.                                       -999.2500:     NULL VALUE
 COMP.                                                :     COMPANY
 WELL.                                            log4:     WELL
 FLD .                                                :     FIELD
 LOC .                                                :     LOCATION
 CNTY.                                                :     COUNTY
 STAT.                                                :     STATE
 CTRY.                                                :     COUNTRY
 SRVC.                                                :     SERVICE COMPANY
 DATE.                                      05/13/2016:     DATE
 API .                                                :     API NUMBER
 UWI .                                                :     UWI NUMBER
 TVD .                                              NO:     TVD flag
 WSTA.                                             LOC:     Well status
#
~Curve Information Block
#MNEM.UNIT       API CODE      Curve Description
#----------    -------------   -------------------
 DEPT.FT                   :   Depth in Feet
 M   .                     :   Magnetic Mark Detector Depth
 GR  .GAPI     35 310 01 01:   Gamma Ray
 CALI.IN       70 280 01 01:   Caliper
 CO  .mrec                 :   Delta-T Min Coefficient Used In The Drift Zone
 C1  .mrec                 :   Caliper 1 - 3
 C2  .mrec                 :   Caliper 2 - 4
 C3  .mrec                 :   Double R1 Radius (Hdt)
 F-COND-0.OHMM                 :   
 F-COND-1.OHMM                 :   
 F-COND-2.OHMM                 :   
 F-COND-3.OHMM                 :   
 0-FREQ.                     :   
 1-FREQ.                     :   
 2-FREQ.                     :   
 3-FREQ.                     :   
 E0  .mrec                 :   
 E1  .mrec                 :   
 E2  .mrec                 :   
 E3  .mrec                 :   
#
~Parameter Information Block
#MNEM.UNIT            Value               Description
#----------    --------------------    -------------------
 RUN .                         ONE:    Run Number
 PDAT.                         UNK:    Permanent Datum
 EPD .FT                -9999.5000:    Elevation Of Perm. Datum
 WSTA.                         LOC:    
 E   .FT                -9999.5000:    E (Stretch Coefficient Of The Cable)
 TD  .FT                  170.0000:    Total Depth
#
~Other Information Block
<DescLogPlotStart>   NEURALOG PLOT DEFINITION
PLOTDEFVERSION: 3
LASFILE: C:\nds\projects\Alireza\las\slb_log04.las
DEPTHSCALE: 239.999996
RESOLUTION: 96
DEPTHLABELFREQ: 100.000000
HEAVYGRIDFREQ: 100.000000
MEDIUMGRIDFREQ: 50.000000
LIGHTGRIDFREQ: 10.000000
#
#   TRACK 1
#
STARTTRACK: 
 LEFTX: 0.500000 inch
 RIGHTX: 3.000000 inch
 SCALETYPE: Linear
 NUMCHARTDIVISIONS: 5
CURVE: M     1.000000   3.500000   (0,0,255)      Solid             2     N    
CURVE: GR    0.000000   100.000000 (0,255,0)      Solid             2     N    
CURVE: CALI  0.000000   16.000000  (0,0,0)        Solid             2     N    
ENDTRACK: 
#
#   TRACK 2
#
STARTTRACK: 
 LEFTX: 3.500000 inch
 RIGHTX: 4.750000 inch
 SCALETYPE: Linear
 NUMCHARTDIVISIONS: 1
CURVE: CO    0.000000   1.100000   (255,131,65)   Solid             2     N    
CURVE: C1    0.000000   1.100000   (255,0,255)    Solid             2     N    
CURVE: C2    0.000000   1.100000   (0,255,0)      Solid             2     N    
CURVE: C3    0.000000   1.100000   (0,0,0)        Solid             2     N    
ENDTRACK: 
#
#   TRACK 3
#
STARTTRACK: 
 LEFTX: 4.750000 inch
 RIGHTX: 8.541667 inch
 SCALETYPE: Log
 NUMCYCLES: 2
 STARTCYCLE: 2
CURVE: F-COND-0 20.000000  2000.000000 (255,131,65)   Solid             2     N
CURVE: F-COND-1 20.000000  2000.000000 (255,0,255)    Solid             2     N
CURVE: F-COND-2 20.000000  2000.000000 (0,255,0)      Solid             2     N
CURVE: F-COND-3 20.000000  2000.000000 (0,0,0)        Solid             2     N
ENDTRACK: 
#
#   TRACK 4
#
STARTTRACK: 
 LEFTX: 8.541667 inch
 RIGHTX: 12.333333 inch
 SCALETYPE: Log
 NUMCYCLES: 0
 STARTCYCLE: 8
CURVE: 0-FREQ 80.000000  8.000000   (255,131,65)   Solid             2     N   
CURVE: 1-FREQ 80.000000  8.000000   (255,0,255)    Solid             2     N   
CURVE: 2-FREQ 80.000000  8.000000   (0,255,0)      Solid             2     N   
CURVE: 3-FREQ 80.000000  8.000000   (0,0,0)        Solid             2     N   
ENDTRACK: 
#
#   TRACK 5
#
STARTTRACK: 
 LEFTX: 12.333333 inch
 RIGHTX: 13.583333 inch
 SCALETYPE: Linear
 NUMCHARTDIVISIONS: 1
CURVE: E0    0.700000   1.400000   (255,131,65)   Solid             2     N    
CURVE: E1    0.700000   1.400000   (255,0,255)    Solid             2     N    
ENDTRACK: 
#
#   TRACK 6
#
STARTTRACK: 
 LEFTX: 12.333333 inch
 RIGHTX: 13.583333 inch
 SCALETYPE: Linear
 NUMCHARTDIVISIONS: 1
CURVE: E2    0.800000   1.500000   (0,255,0)      Solid             2     N    
CURVE: E3    0.800000   1.500000   (0,0,0)        Solid             2     N    
ENDTRACK: 
<DescLogPlotEnd>
<DepthTrack type='Reference' track='1' Label='0' color='0' hor='0' />
<Reference font='144,0,-900,0,500,0,16777216,Arial' />
~A DEPTH     M                GR               CALI             CO               C1               C2               C3               F-COND-0             F-COND-1             F-COND-2             F-COND-3             0-FREQ             1-FREQ             2-FREQ             3-FREQ             E0               E1               E2               E3              
# ...
     152.000 2.11633745       5.40324681       3.15681939       0.83849406       0.85871723       0.92715408       0.98514681       76.94755608      97.85667052      135.97140278     164.38612589     27.90438174      18.61436514      15.99241911      14.54472022      0.95731823       0.96262470       0.97852975       0.99217318      
     152.500 2.04088903       5.53985968       3.15137381       0.87010858       0.91540744       1.00609719       0.98494979       83.01601148      100.36434305     143.63394932     160.27882483     30.02910577      18.49698635      16.50632632      15.01210645      1.02311433       0.95698883       0.99671237       0.99194970      
     153.000 1.99007293       7.02988868       3.14632209       0.93254193       0.95022108       1.07980069       0.98475277       89.56305455      113.90020380     164.38612589     162.31948458     31.63666993      19.45713974      17.47333089      15.79136447      1.04659736       0.94309986       1.01896046       0.99172622      
     153.500 2.14286883       7.53336269       3.14127147       0.94507534       0.95794706       1.09387153       0.98455575       89.56305455      116.81900750     156.27414753     166.47907954     29.44909779      19.09137638      16.52079017      15.10737078      0.97890477       0.94766644       0.99041771       0.99150275      
     154.000 2.08926311       7.55742476       3.13622082       0.89177173       0.90215769       1.04859486       0.98435873       81.99984776      104.24685524     143.02949329     158.98615187     26.94629849      17.92110202      15.45084379      14.63701859      0.95464958       0.94101659       0.97222299       0.99127932      
     154.500 1.99889803       7.59634126       3.13117017       1.01710782       0.98664538       1.05144436       0.98416171       76.02046851      95.41165392      137.70258199     136.06651078     24.27911455      17.25365842      14.27130255      12.26110319      0.96281356       1.00172679       1.02035999       0.99105608      
     155.000 1.96330480       8.28380323       3.12611951       1.02165659       0.90566562       1.08529300       0.98396469       70.36184816      96.01712037      137.70258199     177.58418323     26.69571980      16.92931701      15.01210645      12.61514320      0.99190639       0.96584746       1.03276099       0.99083352      
     155.500 2.18881406       9.11393608       3.12106886       0.81596526       0.76687782       0.92660123       0.98376767       73.29756242      99.10257540      134.26198774     179.31796496     27.03560800      17.03674764      15.10737078      12.89756037      0.93037016       0.92606292       0.99608415       0.99060016      
     156.000 2.10638458       9.65819363       3.11601821       0.75423577       0.73444555       0.78558304       0.98357065       67.80313518      88.43707930      117.11389827     172.91918600     24.78678988      16.71648381      14.54472022      12.66689955      0.88474598       0.89001825       0.95294487       0.99035676      
     156.500 1.97675017       9.66249216       3.11096755       0.75717561       0.74770088       0.79248462       0.98337363       66.10902695      85.14337767      119.99505670     168.59868054     22.22139430      16.29881090      14.18131032      12.82134538      0.82425540       0.87908353       0.93996912       0.99010997      
     157.000 2.06942826       10.52340394      3.10591690       0.73842010       0.74081930       0.77761991       0.98317661       67.80313518      85.14337767      114.03040029     188.93165153     20.85925427      16.40224044      13.82698048      12.33380925      0.76877901       0.88076752       0.98043398       0.98986286      
     157.500 1.95096066       9.68088503       3.10086625       0.74784995       0.75680753       0.79524618       0.98297959       62.84673828      76.94755608      109.52584987     137.70258199     20.20982321      16.09390434      13.65314945      12.74080707      0.76231156       0.89011717       0.95355056       0.98961567      
     158.000 1.86138145       9.70809989       3.09581559       0.83374671       0.81842158       0.87854118       0.98278257       58.95216804      76.94755608      111.05432843     132.57406324     21.42087662      15.79136447      13.91472419      12.81623071      0.75471363       0.90383513       0.95656802       0.98936848      
     158.500 1.99528618       9.71486166       3.09076494       0.92192594       0.88068508       0.94566197       0.98258555       62.90777648      81.97234483      116.81900750     139.45580247     23.08101069      15.99241911      13.73979006      12.18378691      0.92132838       0.94252459       0.98393102       0.98912129      
     159.000 1.92332877       9.73925400       3.08571429       0.88274622       0.88109589       0.94476571       0.98238853       62.84609618      84.07296603      112.46826504     135.97140278     23.22747894      15.59283746      14.09188557      12.26110319      0.89786546       0.92983374       0.98497699       0.98887411      
     159.500 1.92731123       8.90901942       3.08066363       0.89713127       0.90453343       0.94186053       0.98219151       58.88531603      79.92420909      106.91828248     130.90735911     20.99162362      15.59283746      13.14465911      11.87936657      0.81836829       0.93500261       0.97331736       0.98862692      
     160.000 1.83535016       8.44669780       3.07561298       0.82887666       0.80580209       0.80304751       0.98199449       65.14165909      85.10822801      106.91828248     154.30948898     20.85925427      16.10444408      14.63701859      13.31201607      0.76452336       0.88114767       0.94474910       0.98837973      
     160.500 1.75203513       7.33369518       3.07056233       0.83437607       0.85016991       0.85507556       0.98179747       67.09752676      88.49719478      112.46826504     141.94787545     22.22139430      16.08549556      14.45300387      14.09188557      0.80572755       0.86201849       0.92741780       0.98813254      
     161.000 1.89612024       6.84626365       3.06550704       0.86041433       0.87114670       0.93025344       0.98160045       62.72740897      87.31643704      111.05432843     134.26198774     22.50431567      15.78571474      13.73979006      13.14465911      0.86642568       0.87015079       0.94482372       0.98788536      
     161.500 2.02004198       6.84120422       3.06044902       0.86124848       0.86900367       0.94313374       0.98140343       60.64300283      85.17247655      113.90020380     137.70258199     22.50431567      15.49561916      14.00302471      12.57530590      0.88836958       0.89535761       0.96285320       0.98763817      
     162.000 1.99736220       6.81577901       3.05571718       0.90547151       0.91961910       0.99823712       0.98120642       64.45724719      81.97234483      115.35037392     129.37707030     23.22747894      15.69178701      13.73979006      12.49600832      0.92625020       0.92336405       1.00142423       0.98739098      
     162.500 2.01412351       8.09676805       3.05216468       0.92839357       0.91747170       0.99427380       0.98100940       56.79717027      75.02496817      108.27955922     129.15789803     22.43324941      14.91744285      13.22807292      11.58255237      0.91486404       0.93799315       1.01342141       0.98714380      
     163.000 1.90207762       8.95867727       3.05523940       0.97915740       0.91271177       0.95532078       0.98081238       53.99439471      66.95072286      104.24685524     134.57407257     21.66617740      14.82337617      12.33891010      10.53405257      0.90202142       0.95095800       0.99834981       0.98689661      
     163.500 1.80011532       10.67090675      3.13827272       0.90935128       0.87694938       0.95176149       0.98061536       52.64530741      67.85869212      99.10257540      116.54162021     17.67342642      14.54472022      12.97940614      11.08086091      0.80157834       0.94725924       1.01061927       0.98664942      
