~Version Information Block
 VERS.                2.00:     CWLS LOG ASCII STANDARD - VERSION 2.000000
 WRAP.                  NO:     One Line Per Depth Step
#
~Well Information Block
#MNEM.UNIT                     Data                         Information
#----------   ------------------------------------------   ----------------
 STRT.FT                                       92.0000:     START DEPTH
 STOP.FT                                      270.0000:     STOP DEPTH
 STEP.FT                                        0.5000:     STEP
 NULL.                                       -999.2500:     NULL VALUE
 COMP.                                                :     COMPANY
 WELL.                                            log4:     WELL
 FLD .                                                :     FIELD
 LOC .                                                :     LOCATION
 CNTY.                                                :     COUNTY
 STAT.                                                :     STATE
 CTRY.                                                :     COUNTRY
 SRVC.                                                :     SERVICE COMPANY
 DATE.                                      05/13/2016:     DATE
 API .                                                :     API NUMBER
 UWI .                                                :     UWI NUMBER
 TVD .                                              NO:     TVD flag
 WSTA.                                             LOC:     Well status
#
~Curve Information Block
#MNEM.UNIT       API CODE      Curve Description
#----------    -------------   -------------------
 DEPT.FT                   :   Depth in Feet
 M   .                     :   Magnetic Mark Detector Depth
 GR  .GAPI     35 310 01 01:   Gamma Ray
 CALI.IN       70 280 01 01:   Caliper
 CO  .mrec                 :   Delta-T Min Coefficient Used In The Drift Zone
 C1  .mrec                 :   Caliper 1 - 3
 C2  .mrec                 :   Caliper 2 - 4
 C3  .mrec                 :   Double R1 Radius (Hdt)
 F-COND-0.OHMM                 :   
 F-COND-1.OHMM                 :   
 F-COND-2.OHMM                 :   
 F-COND-3.OHMM                 :   
 0-FREQ.                     :   
 1-FREQ.                     :   
 2-FREQ.                     :   
 3-FREQ.                     :   
 E0  .mrec                 :   
 E1  .mrec                 :   
 E2  .mrec                 :   
 E3  .mrec                 :   
#
~Parameter Information Block
#MNEM.UNIT            Value               Description
#----------    --------------------    -------------------
 RUN .                         ONE:    Run Number
 PDAT.                         UNK:    Permanent Datum
 EPD .FT                -9999.5000:    Elevation Of Perm. Datum
 WSTA.                         LOC:    
 E   .FT                -9999.5000:    E (Stretch Coefficient Of The Cable)
 TD  .FT                  170.0000:    Total Depth
#
~Other Information Block
<DescLogPlotStart>   NEURALOG PLOT DEFINITION
PLOTDEFVERSION: 3
LASFILE: C:\nds\projects\Alireza\las\slb_log04.las
DEPTHSCALE: 239.999996
RESOLUTION: 96
DEPTHLABELFREQ: 100.000000
HEAVYGRIDFREQ: 100.000000
MEDIUMGRIDFREQ: 50.000000
LIGHTGRIDFREQ: 10.000000
#
#   TRACK 1
#
STARTTRACK: 
 LEFTX: 0.500000 inch
 RIGHTX: 3.000000 inch
 SCALETYPE: Linear
 NUMCHARTDIVISIONS: 5
CURVE: M     1.000000   3.500000   (0,0,255)      Solid             2     N    
CURVE: GR    0.000000   100.000000 (0,255,0)      Solid             2     N    
CURVE: CALI  0.000000   16.000000  (0,0,0)        Solid             2     N    
ENDTRACK: 
#
#   TRACK 2
#
STARTTRACK: 
 LEFTX: 3.500000 inch
 RIGHTX: 4.750000 inch
 SCALETYPE: Linear
 NUMCHARTDIVISIONS: 1
CURVE: CO    0.000000   1.100000   (255,131,65)   Solid             2     N    
CURVE: C1    0.000000   1.100000   (255,0,255)    Solid             2     N    
CURVE: C2    0.000000   1.100000   (0,255,0)      Solid             2     N    
CURVE: C3    0.000000   1.100000   (0,0,0)        Solid             2     N    
ENDTRACK: 
#
#   TRACK 3
#
STARTTRACK: 
 LEFTX: 4.750000 inch
 RIGHTX: 8.541667 inch
 SCALETYPE: Log
 NUMCYCLES: 2
 STARTCYCLE: 2
CURVE: F-COND-0 20.000000  2000.000000 (255,131,65)   Solid             2     N
CURVE: F-COND-1 20.000000  2000.000000 (255,0,255)    Solid             2     N
CURVE: F-COND-2 20.000000  2000.000000 (0,255,0)      Solid             2     N
CURVE: F-COND-3 20.000000  2000.000000 (0,0,0)        Solid             2     N
ENDTRACK: 
#
#   TRACK 4
#
STARTTRACK: 
 LEFTX: 8.541667 inch
 RIGHTX: 12.333333 inch
 SCALETYPE: Log
 NUMCYCLES: 0
 STARTCYCLE: 8
CURVE: 0-FREQ 80.000000  8.000000   (255,131,65)   Solid             2     N   
CURVE: 1-FREQ 80.000000  8.000000   (255,0,255)    Solid             2     N   
CURVE: 2-FREQ 80.000000  8.000000   (0,255,0)      Solid             2     N   
CURVE: 3-FREQ 80.000000  8.000000   (0,0,0)        Solid             2     N   
ENDTRACK: 
#
#   TRACK 5
#
STARTTRACK: 
 LEFTX: 12.333333 inch
 RIGHTX: 13.583333 inch
 SCALETYPE: Linear
 NUMCHARTDIVISIONS: 1
CURVE: E0    0.700000   1.400000   (255,131,65)   Solid             2     N    
CURVE: E1    0.700000   1.400000   (255,0,255)    Solid             2     N    
ENDTRACK: 
#
#   TRACK 6
#
STARTTRACK: 
 LEFTX: 12.333333 inch
 RIGHTX: 13.583333 inch
 SCALETYPE: Linear
 NUMCHARTDIVISIONS: 1
CURVE: E2    0.800000   1.500000   (0,255,0)      Solid             2     N    
CURVE: E3    0.800000   1.500000   (0,0,0)        Solid             2     N    
ENDTRACK: 
<DescLogPlotEnd>
<DepthTrack type='Reference' track='1' Label='0' color='0' hor='0' />
<Reference font='144,0,-900,0,500,0,16777216,Arial' />
~A DEPTH     M                GR               CALI             CO               C1               C2               C3               F-COND-0             F-COND-1             F-COND-2             F-COND-3             0-FREQ             1-FREQ             2-FREQ             3-FREQ             E0               E1               E2               E3              
# ...
     104.000 2.07397333       10.47552482      3.39536179       0.87104694       0.83183344       0.93749172       1.00406068       65.20210525      87.32525968      116.89157431     160.27882483     23.82270572      17.14486000      14.90583784      13.82698048      0.84592824       0.93884265       0.98316998       1.00678585      
     104.500 1.99970781       9.67856457       3.39404819       0.79403425       0.82611492       0.89530976       1.00386366       76.03828002      92.52886787      127.36904087     182.63308123     26.19388262      17.47333089      15.29756714      13.73979006      0.89007569       0.91923157       0.97917248       1.00669423      
     105.000 2.18696753       9.84695026       3.39078891       0.79765600       0.77721228       0.86752360       1.00366664       75.99202484      101.64217545     132.96597327     186.55642703     25.86457649      18.26444461      16.10157671      14.36186586      0.88364027       0.91190103       0.98449917       1.00660261      
     105.500 2.24386807       9.83589005       3.30750777       0.76660411       0.79144594       0.84790073       1.00346962       65.14826243      89.56305455      121.33805487     160.27882483     24.67569310      17.80809482      15.69178701      13.91472419      0.88005886       0.92443353       0.97373172       1.00651099      
     106.000 2.16131593       9.52486010       3.28249373       0.79696760       0.83489390       0.89123228       1.00327260       56.79717027      85.14337767      115.35037392     144.85053565     23.52905588      17.36314726      15.49451187      13.56705518      0.88897766       0.92098444       0.97380008       1.00641938      
     106.500 2.14516998       8.82725999       3.28061530       0.77697564       0.82550113       0.89079152       1.00307558       58.25265310      84.07296603      115.35037392     146.69476342     24.75656053      17.03674764      15.29971685      13.39649190      0.91276010       0.92921224       0.99998775       1.00632776      
     107.000 2.20239175       8.24869545       3.28042299       0.75423302       0.81314050       0.88059190       1.00287856       62.81494194      87.32525968      119.81260840     154.30948898     23.07007635      16.82256383      15.01210645      13.06177129      0.90747884       0.94441077       1.01414233       1.00623614      
     107.500 2.21695213       9.16543655       3.28057554       0.74929734       0.83641645       0.88843122       1.00268155       65.27791274      88.43707930      113.90020380     128.60911624     23.37893550      16.71648381      15.34251865      14.00302471      0.91154919       0.92469983       0.97032627       1.00614452      
     108.000 2.14263224       10.61827671      3.28057554       0.87892764       0.92488972       0.95109277       1.00248453       58.98188396      78.91941218      101.64217545     102.93627714     21.40784434      15.89157384      13.54312171      13.39649190      0.91883723       0.92557724       0.93873291       1.00605291      
     108.500 1.73006263       11.13410180      3.28057554       1.04373365       1.02473133       1.01993158       1.00228751       55.37805368      76.94755608      97.85667052      124.23116134     21.92071250      15.49451187      14.30840178      13.06177129      0.88277912       0.89708894       0.96103818       1.00596129      
     109.000 1.91874286       11.19375372      3.28057554       0.77223435       0.91694838       1.07609336       1.00209049       60.73619463      83.01601148      112.46826504     172.91918600     24.64692286      16.19603357      14.92671446      12.89756037      0.87702523       0.90286548       0.99167941       1.00586967      
     109.500 1.97219592       10.36271622      3.28057554       0.76667917       0.81648743       0.79909721       1.00189347       71.32270367      90.70336563      122.80637063     141.66114555     26.69571980      16.20263140      14.72892789      12.65278887      1.07056418       0.94044016       1.00843137       1.00577805      
     110.000 1.98681363       11.22752162      3.28057554       0.99473511       0.89945805       0.95357182       1.00169645       61.71906651      84.60968392      124.60582190     119.65189080     23.88306095      16.17528965      14.14559584      12.65031249      1.00544144       0.96235496       0.99467927       1.00568644      
     110.500 2.08376166       11.25012827      3.28057554       1.04214947       1.03806209       1.08195614       1.00149943       52.64530741      80.94179902      112.63471366     129.40928084     23.52320971      17.00778059      14.55933903      13.05561815      0.93267918       0.97505498       1.00063948       1.00559482      
     111.000 2.23229746       10.59206423      3.28057554       0.87068160       0.89400069       0.97174656       1.00130241       51.98345735      78.89178145      111.05035020     137.84085831     27.72842180      17.60428213      15.11522676      13.14586771      1.03581746       0.98295112       1.00778208       1.00550320      
     111.500 2.26245643       11.05334619      3.28057554       0.76343360       0.86412860       0.95142260       1.00110539       53.99439471      78.94612361      112.46826504     141.23134483     25.92682448      17.58421374      15.10737078      13.14465911      0.96820316       0.96609348       0.99281174       1.00541159      
     112.000 2.26401013       8.90538688       3.28057554       0.75511877       0.81906587       0.91692106       1.00090837       53.31558410      77.91669922      113.90020380     141.23134483     24.74426752      17.47333089      15.01210645      13.82698048      0.90388958       0.95112374       0.99041860       1.00531997      
     112.500 2.27788445       10.27828272      3.28082622       0.73624828       0.80017048       0.88272747       1.00071135       54.68184789      78.97980269      111.05432843     150.45395966     23.56721526      17.25365842      15.39680631      13.82698048      0.84684620       0.94284613       0.98959664       1.00522835      
     113.000 2.19272584       9.91090344       3.28156486       0.76464162       0.78324679       0.89030104       1.00051433       57.52030821      74.98552928      104.24685524     146.69476342     20.47184195      16.61107271      14.91744285      13.65314945      0.75461081       0.92473466       1.00939686       1.00513673      
     113.500 1.86754000       10.29174234      3.28364116       0.80327855       0.85710118       0.85438196       1.00031731       58.99432215      69.42971881      91.85819509      103.19681941     16.92931701      15.20323963      13.64303884      12.65510670      0.74223824       0.92891618       0.99475081       1.00504512      
     114.000 1.67102954       10.92687376      3.28979486       1.11474069       0.97954690       1.00106321       1.00012029       55.37805368      66.84244024      88.43707930      109.89498533     17.51759988      15.49451187      13.64564506      12.57530590      0.78328800       0.94061438       0.98444910       1.00495350      
     114.500 1.98354825       11.92585366      3.15968540       1.04078831       0.90330181       0.95570964       0.99992327       55.37805368      66.86142046      107.64539576     135.02097166     23.51577075      18.15214279      15.11660773      13.57564012      0.95931011       0.94741243       0.99229190       1.00486188      
     115.000 2.70642095       10.28048416      3.16471981       0.78683227       0.79731950       0.89910777       0.99972625       58.25265310      94.65576170      162.61312068     187.43251989     38.04414158      21.52955443      17.38322836      15.89157384      1.13755460       1.01282600       1.00780529       1.00477026      
     115.500 2.86963795       8.89399776       3.16574581       0.53233140       0.74630303       0.89843637       0.99952923       56.79717027      115.35037392     181.89518566     219.90686480     44.00222145      25.34847634      19.21086122      16.71648381      1.26448345       1.10174646       1.00891838       1.00467865      
