~Version Information Block
 VERS.                2.00:     CWLS LOG ASCII STANDARD - VERSION 2.000000
 WRAP.                  NO:     One Line Per Depth Step
#
~Well Information Block
#MNEM.UNIT                     Data                         Information
#----------   ------------------------------------------   ----------------
 STRT.FT                                       92.0000:     START DEPTH
 STOP.FT                                      270.0000:     STOP DEPTH
 STEP.FT                                        0.5000:     STEP
 NULL.                                       -999.2500:     NULL VALUE
 COMP.                                                :     COMPANY
 WELL.                                            log4:     WELL
 FLD .                                                :     FIELD
 LOC .                                                :     LOCATION
 CNTY.                                                :     COUNTY
 STAT.                                                :     STATE
 CTRY.                                                :     COUNTRY
 SRVC.                                                :     SERVICE COMPANY
 DATE.                                      05/13/2016:     DATE
 API .                                                :     API NUMBER
 UWI .                                                :     UWI NUMBER
 TVD .                                              NO:     TVD flag
 WSTA.                                             LOC:     Well status
#
~Curve Information Block
#MNEM.UNIT       API CODE      Curve Description
#----------    -------------   -------------------
 DEPT.FT                   :   Depth in Feet
 M   .                     :   Magnetic Mark Detector Depth
 GR  .GAPI     35 310 01 01:   Gamma Ray
 CALI.IN       70 280 01 01:   Caliper
 CO  .mrec                 :   Delta-T Min Coefficient Used In The Drift Zone
 C1  .mrec                 :   Caliper 1 - 3
 C2  .mrec                 :   Caliper 2 - 4
 C3  .mrec                 :   Double R1 Radius (Hdt)
 F-COND-0.OHMM                 :   
 F-COND-1.OHMM                 :   
 F-COND-2.OHMM                 :   
 F-COND-3.OHMM                 :   
 0-FREQ.                     :   
 1-FREQ.                     :   
 2-FREQ.                     :   
 3-FREQ.                     :   
 E0  .mrec                 :   
 E1  .mrec                 :   
 E2  .mrec                 :   
 E3  .mrec                 :   
#
~Parameter Information Block
#MNEM.UNIT            Value               Description
#----------    --------------------    -------------------
 RUN .                         ONE:    Run Number
 PDAT.                         UNK:    Permanent Datum
 EPD .FT                -9999.5000:    Elevation Of Perm. Datum
 WSTA.                         LOC:    
 E   .FT                -9999.5000:    E (Stretch Coefficient Of The Cable)
 TD  .FT                  170.0000:    Total Depth
#
~Other Information Block
<DescLogPlotStart>   NEURALOG PLOT DEFINITION
PLOTDEFVERSION: 3
LASFILE: C:\nds\projects\Alireza\las\slb_log04.las
DEPTHSCALE: 239.999996
RESOLUTION: 96
DEPTHLABELFREQ: 100.000000
HEAVYGRIDFREQ: 100.000000
MEDIUMGRIDFREQ: 50.000000
LIGHTGRIDFREQ: 10.000000
#
#   TRACK 1
#
STARTTRACK: 
 LEFTX: 0.500000 inch
 RIGHTX: 3.000000 inch
 SCALETYPE: Linear
 NUMCHARTDIVISIONS: 5
CURVE: M     1.000000   3.500000   (0,0,255)      Solid             2     N    
CURVE: GR    0.000000   100.000000 (0,255,0)      Solid             2     N    
CURVE: CALI  0.000000   16.000000  (0,0,0)        Solid             2     N    
ENDTRACK: 
#
#   TRACK 2
#
STARTTRACK: 
 LEFTX: 3.500000 inch
 RIGHTX: 4.750000 inch
 SCALETYPE: Linear
 NUMCHARTDIVISIONS: 1
CURVE: CO    0.000000   1.100000   (255,131,65)   Solid             2     N    
CURVE: C1    0.000000   1.100000   (255,0,255)    Solid             2     N    
CURVE: C2    0.000000   1.100000   (0,255,0)      Solid             2     N    
CURVE: C3    0.000000   1.100000   (0,0,0)        Solid             2     N    
ENDTRACK: 
#
#   TRACK 3
#
STARTTRACK: 
 LEFTX: 4.750000 inch
 RIGHTX: 8.541667 inch
 SCALETYPE: Log
 NUMCYCLES: 2
 STARTCYCLE: 2
CURVE: F-COND-0 20.000000  2000.000000 (255,131,65)   Solid             2     N
CURVE: F-COND-1 20.000000  2000.000000 (255,0,255)    Solid             2     N
CURVE: F-COND-2 20.000000  2000.000000 (0,255,0)      Solid             2     N
CURVE: F-COND-3 20.000000  2000.000000 (0,0,0)        Solid             2     N
ENDTRACK: 
#
#   TRACK 4
#
STARTTRACK: 
 LEFTX: 8.541667 inch
 RIGHTX: 12.333333 inch
 SCALETYPE: Log
 NUMCYCLES: 0
 STARTCYCLE: 8
CURVE: 0-FREQ 80.000000  8.000000   (255,131,65)   Solid             2     N   
CURVE: 1-FREQ 80.000000  8.000000   (255,0,255)    Solid             2     N   
CURVE: 2-FREQ 80.000000  8.000000   (0,255,0)      Solid             2     N   
CURVE: 3-FREQ 80.000000  8.000000   (0,0,0)        Solid             2     N   
ENDTRACK: 
#
#   TRACK 5
#
STARTTRACK: 
 LEFTX: 12.333333 inch
 RIGHTX: 13.583333 inch
 SCALETYPE: Linear
 NUMCHARTDIVISIONS: 1
CURVE: E0    0.700000   1.400000   (255,131,65)   Solid             2     N    
CURVE: E1    0.700000   1.400000   (255,0,255)    Solid             2     N    
ENDTRACK: 
#
#   TRACK 6
#
STARTTRACK: 
 LEFTX: 12.333333 inch
 RIGHTX: 13.583333 inch
 SCALETYPE: Linear
 NUMCHARTDIVISIONS: 1
CURVE: E2    0.800000   1.500000   (0,255,0)      Solid             2     N    
CURVE: E3    0.800000   1.500000   (0,0,0)        Solid             2     N    
ENDTRACK: 
<DescLogPlotEnd>
<DepthTrack type='Reference' track='1' Label='0' color='0' hor='0' />
<Reference font='144,0,-900,0,500,0,16777216,Arial' />
~A DEPTH     M                GR               CALI             CO               C1               C2               C3               F-COND-0             F-COND-1             F-COND-2             F-COND-3             0-FREQ             1-FREQ             2-FREQ             3-FREQ             E0               E1               E2               E3              
# ...
     140.000 1.96093417       6.18396801       3.14051787       0.91495492       0.86996393       0.92622330       0.98987527       78.91941218      99.03286452      134.26198774     172.95663654     25.69525434      17.54930880      14.45300387      13.73979006      0.90087873       0.91676540       0.98629897       0.99753666      
     140.500 2.09803744       7.34787650       3.12989602       0.81664661       0.83130690       0.86713707       0.98967826       79.89611765      108.27955922     143.02949329     177.35040863     28.43898963      18.24625968      16.61107271      15.10737078      0.89059173       0.90167267       0.98959788       0.99731318      
     141.000 2.10605139       7.53617310       3.11838425       0.83224754       0.85394386       0.91691919       0.98948124       85.21535267      109.65816764     144.85053565     172.91918600     26.19388262      18.86093978      16.61107271      14.45300387      0.92550506       0.89752785       1.00564833       0.99708970      
     141.500 2.06925557       7.58435621       3.10661340       0.85679489       0.87813323       0.93592609       0.98928422       80.87295068      106.91828248     139.59702067     166.47907954     26.52738146      18.61159789      16.29881090      14.27130255      0.91508437       0.93816377       1.00945324       0.99686622      
     142.000 2.12660009       6.74199785       3.09484256       0.85683796       0.88838878       0.92695909       0.98908720       80.86205153      106.91828248     134.26198774     175.65967216     26.69571980      18.63257685      16.19603357      14.00302471      0.90624655       0.94963866       0.99651889       0.99664275      
     142.500 2.06138118       7.59709133       3.08307171       0.81206452       0.82076419       0.82967619       0.98889018       84.20637236      102.93627714     134.26198774     191.33711724     26.36010464      17.69580023      15.19711148      12.89756037      0.88772478       0.93135841       0.99653310       0.99641927      
     143.000 2.05365215       7.60307257       3.07130087       0.81640501       0.82103004       0.80902842       0.98869316       75.76219168      101.64217545     130.90735911     166.47907954     27.37982363      17.58421374      15.49513406      13.39649190      0.93854872       0.92330420       0.98867834       0.99619579      
     143.500 2.09122457       6.78152809       3.05953002       0.84386883       0.85494015       0.88390468       0.98849614       76.74505878      106.37857575     135.97140278     172.91918600     27.37982363      18.14927235      16.19320759      15.10737078      0.91321535       0.91752268       0.97065040       0.99597231      
     144.000 2.09950292       6.81693903       3.04775918       0.79322832       0.83728314       0.88381784       0.98829912       83.88222610      111.05432843     141.23134483     177.35040863     27.55357143      18.73248880      16.71648381      14.72990267      0.93640139       0.91394166       0.97367264       0.99574883      
     144.500 2.05053889       6.82834911       3.03598833       0.90437978       0.92106061       0.98654893       0.98810210       88.43707930      113.90020380     146.68610029     166.34482956     27.37982363      18.03482635      15.59283746      13.91472419      0.97572161       0.95883387       1.00365239       0.99552535      
     145.000 1.89260936       6.83654279       3.02421749       1.02567020       1.00869009       1.06802883       0.98790508       90.70336563      116.81900750     144.99762181     140.30827898     28.08145829      18.14927235      16.09390434      14.87033513      0.98615931       0.93679836       0.95957118       0.99530188      
     145.500 1.97909369       6.85093601       3.01244664       1.01395289       1.05865806       1.08753391       0.98770806       77.92724745      99.70623182      128.79750293     137.77557823     27.35674019      17.69580023      15.79136447      13.91472419      0.97553049       0.93803906       0.97451816       0.99507840      
     146.000 1.93567417       6.88428337       3.00067580       0.92391934       1.00313952       0.97264934       0.98751104       71.32270367      87.50220692      121.02803446     135.84393168     25.08140740      17.25365842      15.10737078      13.65314945      0.93529316       0.92664729       0.99609761       0.99485492      
     146.500 2.07559766       7.44565148       2.98890495       0.83839237       0.87361204       0.92607927       0.98731402       66.10902695      83.01601148      116.81900750     148.56247177     25.68403563      16.82256383      14.81783895      13.48150381      0.93119728       0.92347989       0.99506593       0.99463144      
     147.000 2.07119878       6.79050105       2.97713511       0.82153113       0.81688064       0.91554199       0.98711700       61.27646906      85.14337767      121.33805487     148.56247177     25.41278394      17.14486000      15.01439790      13.06177129      0.94601937       0.94328036       1.01455014       0.99440796      
     147.500 2.09809739       6.82604429       2.96536546       0.75155281       0.83643852       0.92595509       0.98691998       60.50610914      90.70336563      127.63654819     156.27414753     24.74024349      17.47333089      15.19518952      12.97940614      0.91110307       0.94841826       1.00225348       0.99418448      
     148.000 2.21006505       6.66747072       2.95360537       0.71160080       0.83973162       0.92594737       0.98672296       62.84673828      89.56305455      129.26160857     156.27414753     24.08341631      17.58421374      15.40551893      13.48150381      0.86230884       0.93834686       0.98951147       0.99396101      
     148.500 2.12226924       6.10389346       2.94179990       0.72689217       0.82218491       0.90828708       0.98652594       60.50610914      81.92489104      116.81900750     154.30948898     23.37487664      17.59116512      15.39680631      13.65314945      0.85130335       0.93109146       0.98945365       0.99373753      
     149.000 2.08487387       6.90092594       2.93543831       0.72983533       0.79219684       0.87981324       0.98632892       56.79717027      80.99193692      112.46826504     150.45395966     24.81816890      17.03368416      15.01210645      13.22807292      0.94674305       0.94309564       0.98931672       0.99351405      
     149.500 2.07056657       5.51898484       2.93613293       0.75104364       0.81199378       0.88247698       0.98613190       60.89007082      90.83702343      118.30633964     160.35995649     26.51300195      17.68516314      15.10737078      13.31201607      0.94589007       0.91327578       0.98552748       0.99329057      
     150.000 2.17421346       5.39023067       2.93437437       0.70094846       0.73555988       0.80999163       0.98593488       69.76095435      99.15404870      137.70258199     207.92216925     28.98383983      18.38034773      15.49451187      13.48150381      0.90268656       0.92601739       0.98904335       0.99306709      
     150.500 2.15879992       5.38986856       3.14779549       0.82039893       0.84209784       0.85586829       0.98573786       74.08176389      99.23922790      143.02949329     172.38534257     27.20717146      18.03482635      15.10737078      12.89756037      0.95491453       0.97093859       1.00869548       0.99284361      
     151.000 2.08745082       5.39208998       3.16675723       0.84953767       0.79385104       0.91841370       0.98554085       76.94755608      94.37640351      132.57406324     174.91637278     27.55357143      18.49698635      15.39680631      13.39649190      0.96400412       0.96260058       0.98996002       0.99262013      
     151.500 2.05160932       5.39470678       3.16237449       0.80622670       0.79668885       0.88062864       0.98534383       77.92724745      97.92024895      137.70258199     177.58561079     28.43898963      18.73248880      16.09390434      14.27130255      0.94183335       0.95507354       0.98476693       0.99239666      
