~Version Information Block
 VERS.                2.00:     CWLS LOG ASCII STANDARD - VERSION 2.000000
 WRAP.                  NO:     One Line Per Depth Step
#
~Well Information Block
#MNEM.UNIT                     Data                         Information
#----------   ------------------------------------------   ----------------
 STRT.FT                                       92.0000:     START DEPTH
 STOP.FT                                      270.0000:     STOP DEPTH
 STEP.FT                                        0.5000:     STEP
 NULL.                                       -999.2500:     NULL VALUE
 COMP.                                                :     COMPANY
 WELL.                                            log2:     WELL
 FLD .                                                :     FIELD
 LOC .                                                :     LOCATION
 CNTY.                                                :     COUNTY
 STAT.                                                :     STATE
 CTRY.                                                :     COUNTRY
 SRVC.                                                :     SERVICE COMPANY
 DATE.                                      05/13/2016:     DATE
 API .                                                :     API NUMBER
 UWI .                                                :     UWI NUMBER
 TVD .                                              NO:     TVD flag
 WSTA.                                             LOC:     Well status
#
~Curve Information Block
#MNEM.UNIT       API CODE      Curve Description
#----------    -------------   -------------------
 DEPT.FT                   :   Depth in Feet
 SALINITY.                     :   
 SP  .MV       01 010 01 01:   Spontaneous Potential
 GR  .GAPI     35 310 01 01:   Gamma Ray
 CALI.IN       70 280 01 01:   Caliper
 SW-DIEL.                     :   
 MICRO-R.OHMM                 :   
 DEEP-R.OHMM                 :   
 H2OPOR.%                    :   
 XPOR.%                    :   
#
~Parameter Information Block
#MNEM.UNIT            Value               Description
#----------    --------------------    -------------------
 RUN .                         ONE:    Run Number
 PDAT.                         UNK:    Permanent Datum
 EPD .FT                -9999.5000:    Elevation Of Perm. Datum
 WSTA.                         LOC:    
 E   .FT                -9999.5000:    E (Stretch Coefficient Of The Cable)
 TD  .FT                  170.0000:    Total Depth
#
~Other Information Block
<DescLogPlotStart>   NEURALOG PLOT DEFINITION
PLOTDEFVERSION: 3
LASFILE: C:\nds\projects\Alireza\las\slb_log02.las
DEPTHSCALE: 239.999996
RESOLUTION: 96
DEPTHLABELFREQ: 100.000000
HEAVYGRIDFREQ: 100.000000
MEDIUMGRIDFREQ: 50.000000
LIGHTGRIDFREQ: 10.000000
#
#   TRACK 1
#
STARTTRACK: 
 LEFTX: 0.500000 inch
 RIGHTX: 2.000000 inch
 SCALETYPE: Linear
 NUMCHARTDIVISIONS: 5
CURVE: SALINITY 0.000000   50.000000  (0,0,0)        Solid             2     N 
ENDTRACK: 
#
#   TRACK 2
#
STARTTRACK: 
 LEFTX: 3.500000 inch
 RIGHTX: 4.750000 inch
 SCALETYPE: Linear
 NUMCHARTDIVISIONS: 5
CURVE: SP    0.000000   100.000000 (255,0,0)      Solid             2     N    
CURVE: GR    0.000000   100.000000 (0,255,0)      Dot               2     N    
CURVE: CALI  6.000000   16.000000  (0,0,0)        Short_Dash        2     N    
ENDTRACK: 
#
#   TRACK 3
#
STARTTRACK: 
 LEFTX: 4.750000 inch
 RIGHTX: 5.572917 inch
 SCALETYPE: Linear
 NUMCHARTDIVISIONS: 5
CURVE: SW-DIEL 0.000000   1.000000   (0,0,0)        Solid             2     N  
ENDTRACK: 
#
#   TRACK 4
#
STARTTRACK: 
 LEFTX: 5.572917 inch
 RIGHTX: 8.072917 inch
 SCALETYPE: Log
 NUMCYCLES: 3
 STARTCYCLE: 1
CURVE: MICRO-R 1.000000   1000.000000 (0,0,255)      Solid             2     N 
CURVE: DEEP-R 1.000000   1000.000000 (255,0,0)      Dot               2     N  
ENDTRACK: 
#
#   TRACK 5
#
STARTTRACK: 
 LEFTX: 8.072917 inch
 RIGHTX: 10.572917 inch
 SCALETYPE: Linear
 NUMCHARTDIVISIONS: 5
CURVE: H2OPOR 50.000000  0.000000   (0,0,255)      Solid             2     N   
CURVE: XPOR  50.000000  0.000000   (0,0,0)        Dot               2     N    
ENDTRACK: 
<DescLogPlotEnd>
<DepthTrack type='Reference' track='1' Label='0' color='0' hor='0' />
<Reference font='144,0,-900,0,500,0,16777216,Arial' />
<DepthTrack type='Reference' track='1' Label='0' color='0' hor='0' />
<Reference font='144,0,-900,0,500,0,16777216,Arial' />
~A DEPTH     SALINITY             SP               GR               CALI             SW-DIEL             MICRO-R             DEEP-R             H2OPOR             XPOR            
# ...
     116.500 7.46281943       21.28544991      4.30804188       7.65313653       0.99328332       72.13511328      5.73703182       19.72393822      19.98069498     
     117.000 7.90670864       20.54756926      4.25015167       7.65356948       0.99242767       101.05457608     5.89210219       18.35135135      18.62934363     
     117.500 8.63523490       20.42079554      4.24169916       7.65386188       0.97007071       144.62109991     6.05136406       16.89189189      17.85714286     
     118.000 7.78804583       20.39929345      4.23675933       7.65387790       0.99753623       111.15933652     6.05136406       16.89189189      17.85714286     
     118.500 6.89797741       20.38949104      4.22644271       7.65390690       0.99611019       83.93405863      5.89210219       18.05019305      17.85714286     
     119.000 7.05168180       20.38543485      4.19952018       7.65401305       0.99630878       61.59923087      5.43902726       17.50922553      17.33223043     
     119.500 7.42080112       20.38461538      3.53508319       7.64994625       0.99690323       59.97804117      5.29588107       16.48968353      16.41838452     
     120.000 7.77684284       20.38461538      2.05726653       7.64396101       0.99770909       61.59923087      5.02079166       15.47014153      15.50453860     
     120.500 8.12988601       20.38320272      1.14388316       7.63795618       0.99856482       66.73049161      4.75999150       14.45059954      14.59069268     
     121.000 8.47935236       20.38106725      2.03139214       7.63194434       0.99946603       63.26424087      4.39397056       13.43105754      13.67684676     
     121.500 8.55327442       20.37254504      1.95498333       7.62592943       1.00036724       58.39951850      4.16573002       12.41151555      12.76300084     
     122.000 7.85705799       20.35413113      1.93443547       7.61991690       1.00126846       63.26424087      3.94934521       11.67953668      11.87258687     
     122.500 7.87916757       20.29485641      1.93471515       7.61390701       1.00221578       74.24314671      3.74420030       11.29343629      11.48648649     
     123.000 8.58152168       21.22373096      2.54883399       7.60789712       1.00309081       78.31093221      3.45628892       11.87258687      12.43391743     
     123.500 8.15756511       21.13468210      2.64568893       7.60188230       1.00375727       64.97425563      3.36532512       14.50128700      14.86634987     
     124.000 7.39272279       22.79005434      2.55728207       7.59586672       1.00415101       53.90887039      3.27675534       17.19916345      17.29878230     
     124.500 7.16568295       24.65314600      1.95883475       7.58984900       1.00381999       47.17861352      3.10654746       20.17374517      19.98069498     
     125.000 7.88657345       23.75449247      2.07149153       7.58382744       0.96841120       42.97388657      3.02478827       20.17374517      21.04247104     
     125.500 8.12171722       21.94580503      3.31344147       7.57785536       0.93149484       38.11369735      2.94518086       18.82239382      21.13899614     
     126.000 8.13070535       20.51725107      3.43359848       7.57698215       0.95432503       32.47753142      2.79219629       19.20849421      20.94594595     
     126.500 8.13618651       18.81845127      3.44933996       7.57671194       0.98117999       28.42287163      2.64715836       20.36679537      20.75289575     
     127.000 8.14270372       18.83528145      3.45565257       7.57599664       0.98401576       23.58233870      2.57748954       20.94594595      20.94594595     
     127.500 8.16489929       18.83337197      3.45692115       7.57395943       0.98633338       20.63819990      2.44360434       19.59459459      20.17374517     
     128.000 7.41498276       18.82944774      3.45389878       7.56628720       0.98842441       17.58627035      2.31667368       19.59459459      19.59107199     
     128.500 7.00754270       18.81563126      3.50597811       7.53626728       0.99015010       18.54982293      2.25570267       18.82239382      18.44742944     
     129.000 7.26494644       18.76153401      5.63713599       7.57080603       0.99138486       20.63819990      2.19633631       16.69884170      17.64802267     
     129.500 7.50851505       19.70201092      7.25349565       7.57746015       0.96967156       21.19604468      2.13853238       16.31274131      17.67568411     
     130.000 7.75273030       20.26233055      7.29517383       7.57722732       0.98182085       21.19604468      2.13853238       17.66409266      17.84578198     
     130.500 8.00327412       20.92160553      6.66283883       7.57812975       0.98788780       18.53245101      2.08224975       18.05019305      18.25222947     
     131.000 8.18415357       21.97547698      5.93425743       7.64034832       0.99414036       18.56211876      2.02744839       18.24324324      19.01544402     
     131.500 9.10545184       21.94759096      5.81240647       7.65137227       0.94631828       17.10785648      2.02744839       18.05019305      20.17374517     
     132.000 9.70765930       22.56300575      5.22848006       7.65278397       0.92728162       17.14288939      1.97408930       18.62934363      21.13899614     
     132.500 9.45979891       22.67029755      4.17979263       7.65344053       0.95185620       14.57554039      1.97408930       17.85714286      20.17374517     
     133.000 9.19247390       22.68309848      4.80539095       7.65376421       0.98363927       16.67781490      1.92213454       17.66409266      19.40154440     
     133.500 8.91791063       22.68825150      5.90642544       7.65370489       0.98308551       16.68738952      1.87154715       18.07495464      19.03338662     
     134.000 8.63906460       22.69056314      6.04858391       7.65349134       0.98607085       15.78638715      1.87154715       18.42414987      18.80582078     
     134.500 8.35894606       22.69163322      2.69102080       7.65273163       0.98924097       15.37209726      1.87154715       18.64072617      18.45651035     
     135.000 8.08027937       22.69575116      1.87642019       7.65092802       0.99258090       15.37646854      1.82229113       18.22908294      18.02474043     
     135.500 7.80260879       22.70373912      1.03058556       7.64447296       0.99595748       15.40288108      1.82229113       17.68103379      17.88178573     
     136.000 7.55653034       22.72343353      1.11687348       7.73615565       0.99930677       15.37248953      1.76706699       17.65013281      17.45145175     
     136.500 8.15465765       23.46981789      1.14869385       7.72368600       1.00272452       16.23396893      1.78188722       17.48294003      17.48132267     
     137.000 8.76457947       24.95701349      1.17340883       7.81394790       1.00670517       16.67276857      1.72414675       17.26944109      17.85679215     
     137.500 9.37609140       24.75593621      1.28239268       7.86915015       0.93796658       15.80671776      1.72704023       15.93212442      17.84935045     
     138.000 9.98428990       23.57605641      1.89747423       7.98996829       0.86842999       20.33766823      1.72749519       14.95447798      17.67693134     
     138.500 10.58896903      22.62829853      1.88699450       7.73676678       0.90688465       24.21976273      1.72655775       14.76833977      17.08494208     
     139.000 11.12353524      22.69675508      1.22533422       7.73115862       0.91294595       23.58233870      1.72853710       14.18918919      16.50579151     
     139.500 11.02255705      22.82496118      2.14129730       7.72129692       0.98435549       22.96169062      1.72193515       15.73359073      16.11969112     
     140.000 8.46412012       23.46639492      4.38874104       7.72672287       0.98446199       23.58233870      1.78258930       17.08494208      16.69884170     
     140.500 7.56370991       23.58873269      5.80940593       7.64278136       0.98618428       19.56616860      1.82711824       17.47104247      17.08494208     
