~Version Information Block
 VERS.                2.00:     CWLS LOG ASCII STANDARD - VERSION 2.000000
 WRAP.                  NO:     One Line Per Depth Step
#
~Well Information Block
#MNEM.UNIT                     Data                         Information
#----------   ------------------------------------------   ----------------
 STRT.FT                                       92.0000:     START DEPTH
 STOP.FT                                      270.0000:     STOP DEPTH
 STEP.FT                                        0.5000:     STEP
 NULL.                                       -999.2500:     NULL VALUE
 COMP.                                                :     COMPANY
 WELL.                                            log2:     WELL
 FLD .                                                :     FIELD
 LOC .                                                :     LOCATION
 CNTY.                                                :     COUNTY
 STAT.                                                :     STATE
 CTRY.                                                :     COUNTRY
 SRVC.                                                :     SERVICE COMPANY
 DATE.                                      05/13/2016:     DATE
 API .                                                :     API NUMBER
 UWI .                                                :     UWI NUMBER
 TVD .                                              NO:     TVD flag
 WSTA.                                             LOC:     Well status
#
~Curve Information Block
#MNEM.UNIT       API CODE      Curve Description
#----------    -------------   -------------------
 DEPT.FT                   :   Depth in Feet
 SALINITY.                     :   
 SP  .MV       01 010 01 01:   Spontaneous Potential
 GR  .GAPI     35 310 01 01:   Gamma Ray
 CALI.IN       70 280 01 01:   Caliper
 SW-DIEL.                     :   
 MICRO-R.OHMM                 :   
 DEEP-R.OHMM                 :   
 H2OPOR.%                    :   
 XPOR.%                    :   
#
~Parameter Information Block
#MNEM.UNIT            Value               Description
#----------    --------------------    -------------------
 RUN .                         ONE:    Run Number
 PDAT.                         UNK:    Permanent Datum
 EPD .FT                -9999.5000:    Elevation Of Perm. Datum
 WSTA.                         LOC:    
 E   .FT                -9999.5000:    E (Stretch Coefficient Of The Cable)
 TD  .FT                  170.0000:    Total Depth
#
~Other Information Block
<DescLogPlotStart>   NEURALOG PLOT DEFINITION
PLOTDEFVERSION: 3
LASFILE: C:\nds\projects\Alireza\las\slb_log02.las
DEPTHSCALE: 239.999996
RESOLUTION: 96
DEPTHLABELFREQ: 100.000000
HEAVYGRIDFREQ: 100.000000
MEDIUMGRIDFREQ: 50.000000
LIGHTGRIDFREQ: 10.000000
#
#   TRACK 1
#
STARTTRACK: 
 LEFTX: 0.500000 inch
 RIGHTX: 2.000000 inch
 SCALETYPE: Linear
 NUMCHARTDIVISIONS: 5
CURVE: SALINITY 0.000000   50.000000  (0,0,0)        Solid             2     N 
ENDTRACK: 
#
#   TRACK 2
#
STARTTRACK: 
 LEFTX: 3.500000 inch
 RIGHTX: 4.750000 inch
 SCALETYPE: Linear
 NUMCHARTDIVISIONS: 5
CURVE: SP    0.000000   100.000000 (255,0,0)      Solid             2     N    
CURVE: GR    0.000000   100.000000 (0,255,0)      Dot               2     N    
CURVE: CALI  6.000000   16.000000  (0,0,0)        Short_Dash        2     N    
ENDTRACK: 
#
#   TRACK 3
#
STARTTRACK: 
 LEFTX: 4.750000 inch
 RIGHTX: 5.572917 inch
 SCALETYPE: Linear
 NUMCHARTDIVISIONS: 5
CURVE: SW-DIEL 0.000000   1.000000   (0,0,0)        Solid             2     N  
ENDTRACK: 
#
#   TRACK 4
#
STARTTRACK: 
 LEFTX: 5.572917 inch
 RIGHTX: 8.072917 inch
 SCALETYPE: Log
 NUMCYCLES: 3
 STARTCYCLE: 1
CURVE: MICRO-R 1.000000   1000.000000 (0,0,255)      Solid             2     N 
CURVE: DEEP-R 1.000000   1000.000000 (255,0,0)      Dot               2     N  
ENDTRACK: 
#
#   TRACK 5
#
STARTTRACK: 
 LEFTX: 8.072917 inch
 RIGHTX: 10.572917 inch
 SCALETYPE: Linear
 NUMCHARTDIVISIONS: 5
CURVE: H2OPOR 50.000000  0.000000   (0,0,255)      Solid             2     N   
CURVE: XPOR  50.000000  0.000000   (0,0,0)        Dot               2     N    
ENDTRACK: 
<DescLogPlotEnd>
<DepthTrack type='Reference' track='1' Label='0' color='0' hor='0' />
<Reference font='144,0,-900,0,500,0,16777216,Arial' />
<DepthTrack type='Reference' track='1' Label='0' color='0' hor='0' />
<Reference font='144,0,-900,0,500,0,16777216,Arial' />
~A DEPTH     SALINITY             SP               GR               CALI             SW-DIEL             MICRO-R             DEEP-R             H2OPOR             XPOR            
# ...
     141.000 7.89632732       24.20883203      6.65267528       7.64891935       0.98821755       19.56616860      1.81751565       17.47104247      17.27799228     
     141.500 8.50946327       24.20607413      4.74787445       7.58884035       0.99022201       19.56616860      1.91589774       16.69884170      16.89189189     
     142.000 9.95357053       24.15299582      3.28163963       7.57886769       0.98777713       20.63819990      1.97978352       15.54054054      16.89189189     
     142.500 10.81985406      25.09047986      6.05680892       7.57784400       0.96080508       22.35737696      1.96891234       15.73359073      17.08494208     
     143.000 9.09155337       25.04063938      5.17481884       7.57732870       0.98087479       22.96169062      2.03026795       17.47104247      17.85714286     
     143.500 7.52025144       25.11918339      4.77804809       7.57700502       0.98141578       20.63819990      2.02527513       18.62934363      18.62934363     
     144.000 6.45714449       25.67891142      4.93940213       7.57692308       0.98220448       17.12342885      2.02843119       18.24324324      18.62934363     
     144.500 6.95518515       26.62362729      4.95406921       7.57692308       0.98679772       16.23396893      2.02956139       17.47104247      18.62934363     
     145.000 6.12766787       26.57376895      4.89752539       7.57692308       0.99193452       18.54982293      2.03058830       18.05019305      18.62934363     
     145.500 6.60945401       26.57127419      5.80737178       7.57692308       0.99324157       18.06162232      1.97833192       16.31274131      16.50579151     
     146.000 8.51755068       26.61604140      5.06662949       7.57692308       0.99358847       23.61830676      1.91793856       15.34749035      15.34749035     
     146.500 8.69794262       25.66451674      5.86066408       7.57706434       0.99330658       26.29739758      1.92213454       14.57528958      15.34749035     
     147.000 8.72031261       25.68364022      5.67398578       7.57727789       0.97073047       26.98643971      1.82229113       14.38223938      15.34749035     
     147.500 8.73151187       25.56289876      5.02943942       7.57761380       0.99502859       26.96722887      1.87154715       14.96138996      15.34749035     
     148.000 8.74291920       27.41280021      4.95528810       7.57868426       0.99420139       26.22642826      1.92213454       15.15444015      15.54054054     
     148.500 8.75535638       29.72081383      3.39012367       7.58319744       0.99388664       29.25136868      1.92213454       14.57528958      15.15444015     
     149.000 8.84536151       30.48782760      3.42050932       7.48683751       0.99350288       29.27525074      1.97408930       14.57528958      14.97241734     
     149.500 9.82889636       29.63075626      2.80432025       7.48108744       0.98555512       26.83278027      2.02744839       14.57528958      15.34431982     
     150.000 11.91375545      27.60993295      2.68696902       7.66931465       0.95887930       23.08503967      2.08224975       14.57528958      16.30774716     
     150.500 10.21648468      27.24293533      2.56694100       7.65843295       0.91078262       21.89242321      2.13853238       14.57528958      16.51313306     
     151.000 9.42305197       26.57737877      1.94109378       7.65565140       0.95538309       23.08559255      2.19633631       14.96138996      16.30950229     
     151.500 8.13920809       26.54819988      1.92451829       7.65455578       0.96798798       25.54676467      2.31667368       16.10390948      15.92664093     
     152.000 7.30658013       26.53830863      1.97050650       7.65412869       0.96825782       23.58233870      2.44360434       16.52744777      16.11969112     
     152.500 6.50318488       26.53680166      3.52167971       7.65384615       0.96825834       20.09503667      2.57748954       17.06651510      16.89189189     
     153.000 6.47193772       26.53593485      3.46624224       7.65384615       0.96799337       16.67276857      2.64715836       17.48577511      17.66409266     
     153.500 6.65738492       26.53650812      3.41460758       7.65384615       0.96726461       16.23396893      2.64715836       17.65693222      17.66409266     
     154.000 6.84024321       26.53504181      4.46609080       7.65384615       0.96563427       18.06162232      2.57748954       17.47104247      17.66810425     
     154.500 7.52522198       26.53265856      5.66441816       7.65384615       0.93117315       20.09503667      2.50965428       15.92664093      17.65292959     
     155.000 9.82558946       26.83945548      6.40010996       7.65384615       0.88018585       20.91526254      2.50965428       14.57528958      17.20538379     
     155.500 9.93577617       28.13667863      7.14214300       7.65384615       0.92604158       22.96169062      2.44360434       14.76833977      16.86038998     
     156.000 9.95366518       28.08640517      7.27087007       7.65384615       0.97148322       26.23728658      2.37929272       15.15444015      15.95971617     
     156.500 10.02340303      28.06440907      7.26714482       7.65384615       0.93603694       28.42287163      2.25883562       14.38223938      15.54054054     
     157.000 11.33659327      28.00907325      6.49901718       7.65384615       0.91641422       29.19113391      2.19552018       13.80308880      15.15444015     
     157.500 9.39658378       28.95497665      6.52628995       7.65384615       0.94144242       29.19113391      2.13710500       14.18918919      15.15444015     
     158.000 8.66411093       29.00350249      6.53316187       7.65392810       0.95913263       29.19113391      1.97579510       13.80308880      14.96138996     
     158.500 8.72426098       29.61299548      6.53608880       7.65425177       0.90684842       29.98016211      1.87069320       13.22393822      14.76833977     
     159.000 9.21916130       29.62424437      6.53729266       7.65490834       0.90468853       26.94647310      1.87309430       13.22393822      14.77738965     
     159.500 9.28733319       29.63606671      6.53987421       7.65632003       0.88440891       28.42287163      1.87154715       13.22393822      14.76421231     
     160.000 8.30092532       29.71781563      6.54200967       7.66734399       0.94915335       27.67482874      1.97408930       14.96138996      15.15286409     
     160.500 6.84540489       32.09466627      6.54726904       7.72986771       0.96703992       26.23728658      2.02744839       16.31274131      15.54670996     
     161.000 6.68511577       33.28013986      6.56137907       7.73163104       0.96789338       25.54676467      2.13853238       15.92664093      15.53214879     
     161.500 7.22209625       32.58199003      6.62113109       7.73332979       0.96610407       25.54676467      2.25570267       14.76833977      15.74240279     
     162.000 7.77887549       32.00213459      5.69397131       7.74430485       0.91556886       28.65120270      2.37929272       13.79665380      15.72971304     
     162.500 8.85808651       30.95336590      5.76824669       7.80647768       0.86186238       35.18293341      2.64715836       12.01737452      15.53972193     
     163.000 11.26502287      30.39914400      6.46984631       7.80749192       0.73258966       43.55080019      2.79219629       10.52123552      15.35446680     
     163.500 11.08031545      30.59690052      8.24920374       7.80777898       0.66519735       47.17861352      2.86766858       9.94208494       14.76052649     
     164.000 9.47953784       32.34780364      8.83889524       7.80781204       0.71771835       43.55080019      2.86766858       10.13513514      14.38704300     
     164.500 8.20260699       34.40109750      8.84066316       7.80778482       0.77517412       40.20194863      2.86766858       10.32818533      13.99613900     
     165.000 8.22698432       37.01466859      8.80399289       7.80769231       0.79645479       40.20194863      2.86766858       10.71428571      13.61003861     
